,osm_obj_type,id,latitude,longitude,unit,street_no,street_name,osm_tag,full_address,request_address
243121,way,583066677,45.3594233,-75.6471979,,3330,Albion Road South,house,"3330 Albion road south, Ottawa, ON","3330 Albion road south, Ottawa, ON"
240686,way,581765518,45.4747927,-75.5330727,,1109,Taffy Lane,house,"1109 Taffy lane, Ottawa, ON","1109 Taffy lane, Ottawa, ON"
162127,way,482831541,45.3395026,-75.6331092,,117,Maple Key Private,house,"117 Maple key private, Ottawa, ON","117 Maple key private, Ottawa, ON"
120612,way,474026886,45.3652431,-75.7265599,,66,Encore Private,house,"66 Encore private, Ottawa, ON","66 Encore private, Ottawa, ON"
58505,way,471330570,45.2905597,-75.7322522,,56 A,Woodford Way,house,"56 A Woodford way, Ottawa, ON","56 A Woodford way, Ottawa, ON"
233945,way,577875952,45.3614556,-75.6399037,,271,Temby Private,house,"271 Temby private, Ottawa, ON","271 Temby private, Ottawa, ON"
238524,way,580529676,45.368144,-75.641685,,206,Macoun Circle,house,"206 Macoun circle, Ottawa, ON","206 Macoun circle, Ottawa, ON"
150221,way,480073473,45.3493867,-75.6659601,,123,Columbia Avenue,house,"123 Columbia avenue, Ottawa, ON","123 Columbia avenue, Ottawa, ON"
132337,way,474903813,45.3816835,-75.7351586,,1350,Leaside Avenue,house,"1350 Leaside avenue, Ottawa, ON","1350 Leaside avenue, Ottawa, ON"
87331,way,472271575,45.3386265,-75.7815781,,60,Meadowbank Drive,house,"60 Meadowbank drive, Ottawa, ON","60 Meadowbank drive, Ottawa, ON"
246513,way,583840214,45.4281371,-75.6540646,,329,Donald Street,house,"329 Donald street, Ottawa, ON","329 Donald street, Ottawa, ON"
192387,way,543418466,45.2865101,-75.7554355,,62,Fieldgate Drive,house,"62 Fieldgate drive, Ottawa, ON","62 Fieldgate drive, Ottawa, ON"
130207,way,474720316,45.3537924,-75.7728655,,2400,Iris Street,house,"2400 Iris street, Ottawa, ON","2400 Iris street, Ottawa, ON"
6675,way,264029415,45.3915808,-75.733914,,19,Edina Street,house,"19 Edina street, Ottawa, ON","19 Edina street, Ottawa, ON"
143370,way,479515331,45.3765323,-75.7287516,,1287,Trenton Avenue,house,"1287 Trenton avenue, Ottawa, ON","1287 Trenton avenue, Ottawa, ON"
199244,way,547162447,45.3621267,-75.7308459,,13,Trillium Avenue,house,"13 Trillium avenue, Ottawa, ON","13 Trillium avenue, Ottawa, ON"
221124,way,566792902,45.4312399,-75.5610305,,2090,Orient Park Drive,house,"2090 Orient park drive, Ottawa, ON","2090 Orient park drive, Ottawa, ON"
162052,way,482831458,45.3413561,-75.6364052,,3960,Autumnwood Street,house,"3960 Autumnwood street, Ottawa, ON","3960 Autumnwood street, Ottawa, ON"
241689,way,582085267,45.3895675,-75.6265689,,917,Canterbury Avenue,house,"917 Canterbury avenue, Ottawa, ON","917 Canterbury avenue, Ottawa, ON"
176718,way,483766870,45.3771753,-75.6533244,,2830 B,Cedarwood Drive,house,"2830 B Cedarwood drive, Ottawa, ON","2830 B Cedarwood drive, Ottawa, ON"
245516,way,583548934,45.3519132,-75.6496271,,2655,Pimlico Crescent,house,"2655 Pimlico crescent, Ottawa, ON","2655 Pimlico crescent, Ottawa, ON"
31409,way,470089150,45.249082,-75.7370794,,2461,Regatta Avenue,house,"2461 Regatta avenue, Ottawa, ON","2461 Regatta avenue, Ottawa, ON"
19037,way,459247290,45.4342562,-75.693639,,205,Cathcart Street,house,"205 Cathcart street, Ottawa, ON","205 Cathcart street, Ottawa, ON"
204575,way,548034203,45.3724924,-75.7560604,,888,Maitland Avenue,house,"888 Maitland avenue, Ottawa, ON","888 Maitland avenue, Ottawa, ON"
266079,way,614352107,45.2823423,-75.8714166,,614,Moorpark Avenue,house,"614 Moorpark avenue, Ottawa, ON","614 Moorpark avenue, Ottawa, ON"
206880,way,549656189,45.4098338,-75.7038523,,325,James Street,house,"325 James street, Ottawa, ON","325 James street, Ottawa, ON"
6303,way,260749233,45.44296,-75.6907405,,61,MacKay Street,house,"61 Mackay street, Ottawa, ON","61 Mackay street, Ottawa, ON"
114462,way,473210124,45.3489313,-75.7189355,,80,Saginaw Crescent,house,"80 Saginaw crescent, Ottawa, ON","80 Saginaw crescent, Ottawa, ON"
247342,way,584188400,45.4446231,-75.6078892,,1142,Chimney Hill Way,house,"1142 Chimney hill way, Ottawa, ON","1142 Chimney hill way, Ottawa, ON"
44943,way,470870184,45.2889951,-75.741773,,9,Saffron Court,house,"9 Saffron court, Ottawa, ON","9 Saffron court, Ottawa, ON"
164538,way,483027035,45.3720201,-75.6831226,,14,Confederation Private,house,"14 Confederation private, Ottawa, ON","14 Confederation private, Ottawa, ON"
18910,way,458859595,45.4323967,-75.6947699,,110,Bruyère Street,house,"110 Bruyère street, Ottawa, ON","110 Bruyère street, Ottawa, ON"
234003,way,577876011,45.3613424,-75.6393893,,278,Temby Private,house,"278 Temby private, Ottawa, ON","278 Temby private, Ottawa, ON"
192024,way,541746154,45.3569469,-75.7933186,,876,Pinewood Crescent,house,"876 Pinewood crescent, Ottawa, ON","876 Pinewood crescent, Ottawa, ON"
246512,way,583840213,45.4281246,-75.6541935,,327,Donald Street,house,"327 Donald street, Ottawa, ON","327 Donald street, Ottawa, ON"
239902,way,581735337,45.4774251,-75.5408882,,1145,St-Emmanuel Terrace,house,"1145 St-emmanuel terrace, Ottawa, ON","1145 St-emmanuel terrace, Ottawa, ON"
288544,way,636068938,45.4810796,-76.0766897,,133,Monty Drive,house,"133 Monty drive, Ottawa, ON","133 Monty drive, Ottawa, ON"
225638,way,569434508,45.3512969,-75.7285579,,44 B,Chesterton Drive,house,"44 B Chesterton drive, Ottawa, ON","44 B Chesterton drive, Ottawa, ON"
105339,way,472844556,45.3518308,-75.7070668,,106,Homestead Street,house,"106 Homestead street, Ottawa, ON","106 Homestead street, Ottawa, ON"
196303,way,546734824,45.3344936,-75.7355678,,50,Downsview Crescent,house,"50 Downsview crescent, Ottawa, ON","50 Downsview crescent, Ottawa, ON"
134975,way,475306576,45.3733427,-75.7759015,,236,Allison Avenue,house,"236 Allison avenue, Ottawa, ON","236 Allison avenue, Ottawa, ON"
227374,way,570994162,45.4834344,-75.4765904,,990,Cookshire Crescent,house,"990 Cookshire crescent, Ottawa, ON","990 Cookshire crescent, Ottawa, ON"
283378,way,622543107,45.2578293,-75.3722975,,18,Gaslight Way,house,"18 Gaslight way, Ottawa, ON","18 Gaslight way, Ottawa, ON"
235693,way,578629655,45.4282948,-75.6237288,,1286,Perez Crescent,house,"1286 Perez crescent, Ottawa, ON","1286 Perez crescent, Ottawa, ON"
87853,way,472299503,45.3146103,-75.9261593,,180,Goldridge Drive,house,"180 Goldridge drive, Ottawa, ON","180 Goldridge drive, Ottawa, ON"
225736,way,569434628,45.3503952,-75.7271362,,61 A,Bowhill Avenue,house,"61 A Bowhill avenue, Ottawa, ON","61 A Bowhill avenue, Ottawa, ON"
221741,way,567196208,45.2850026,-75.7352898,,205,Claridge Drive,house,"205 Claridge drive, Ottawa, ON","205 Claridge drive, Ottawa, ON"
57130,way,471315656,45.2769061,-75.6959154,,365,Riversedge Crescent,house,"365 Riversedge crescent, Ottawa, ON","365 Riversedge crescent, Ottawa, ON"
196056,way,546731818,45.3318659,-75.7787093,,73,Craig Henry Drive,house,"73 Craig henry drive, Ottawa, ON","73 Craig henry drive, Ottawa, ON"
8696,way,317701329,45.4070087,-75.6607387,,1642,Abbey Road,house,"1642 Abbey road, Ottawa, ON","1642 Abbey road, Ottawa, ON"
118747,way,473994937,45.3587335,-75.7161807,,35,Ashburn Drive,house,"35 Ashburn drive, Ottawa, ON","35 Ashburn drive, Ottawa, ON"
6361,way,261716422,45.394296,-75.7261434,,106,Kenilworth Street,house,"106 Kenilworth street, Ottawa, ON","106 Kenilworth street, Ottawa, ON"
188359,way,484776951,45.4384859,-75.5463041,,2637,Cléroux Crescent,house,"2637 Cléroux crescent, Ottawa, ON","2637 Cléroux crescent, Ottawa, ON"
108601,way,473083844,45.3431907,-75.6892542,,90,Cardiff Private,house,"90 Cardiff private, Ottawa, ON","90 Cardiff private, Ottawa, ON"
247998,way,584484673,45.4024655,-75.6902057,,145,Third Avenue,house,"145 Third avenue, Ottawa, ON","145 Third avenue, Ottawa, ON"
242336,way,582422807,45.3819458,-75.6736087,,1101,Apolydore Avenue,house,"1101 Apolydore avenue, Ottawa, ON","1101 Apolydore avenue, Ottawa, ON"
8267,way,307655292,45.4681444,-75.4971869,,1589,Prestwick Drive,house,"1589 Prestwick drive, Ottawa, ON","1589 Prestwick drive, Ottawa, ON"
257203,way,600855164,45.3894792,-75.7572108,,578,Byron Avenue,house,"578 Byron avenue, Ottawa, ON","578 Byron avenue, Ottawa, ON"
225691,way,569434582,45.350884,-75.7275131,,64 C,Chesterton Drive,house,"64 C Chesterton drive, Ottawa, ON","64 C Chesterton drive, Ottawa, ON"
18931,way,458864626,45.4349852,-75.6923812,,13,Cathcart Square,house,"13 Cathcart square, Ottawa, ON","13 Cathcart square, Ottawa, ON"
46398,way,471117047,45.4564412,-75.4698023,,2054,Boisfranc Circle,house,"2054 Boisfranc circle, Ottawa, ON","2054 Boisfranc circle, Ottawa, ON"
247721,way,584306549,45.3933305,-75.6889956,,29,Léonard Avenue,house,"29 Léonard avenue, Ottawa, ON","29 Léonard avenue, Ottawa, ON"
205735,way,548802050,45.3438204,-75.6328564,,238,Parkin Circle,house,"238 Parkin circle, Ottawa, ON","238 Parkin circle, Ottawa, ON"
36764,way,470425872,45.2622618,-75.761801,,277,Broxburn Crescent,house,"277 Broxburn crescent, Ottawa, ON","277 Broxburn crescent, Ottawa, ON"
219426,way,564396321,45.274812,-75.7851972,,1127,Cobble Hill Drive,house,"1127 Cobble hill drive, Ottawa, ON","1127 Cobble hill drive, Ottawa, ON"
230317,way,574575883,45.2838005,-75.9213554,,683,Rosehill Avenue,house,"683 Rosehill avenue, Ottawa, ON","683 Rosehill avenue, Ottawa, ON"
6461,way,261979306,45.3926299,-75.7291526,,386,Huron Avenue South,house,"386 Huron avenue south, Ottawa, ON","386 Huron avenue south, Ottawa, ON"
15518,way,441861896,45.4003824,-75.7186574,,139,Young Street,house,"139 Young street, Ottawa, ON","139 Young street, Ottawa, ON"
219959,way,564878470,45.2709037,-75.780462,,973,Cobble Hill Drive,house,"973 Cobble hill drive, Ottawa, ON","973 Cobble hill drive, Ottawa, ON"
18998,way,459096195,45.44224,-75.6922181,,76,John Street,house,"76 John street, Ottawa, ON","76 John street, Ottawa, ON"
225815,way,569464097,45.3633682,-75.7104712,,1089,Meadowlands Drive,house,"1089 Meadowlands drive, Ottawa, ON","1089 Meadowlands drive, Ottawa, ON"
170892,way,483307045,45.4570085,-75.5923567,,2184,Bickerton Avenue,house,"2184 Bickerton avenue, Ottawa, ON","2184 Bickerton avenue, Ottawa, ON"
83550,way,472250240,45.3257269,-75.7919115,,93,Hobart Crescent,house,"93 Hobart crescent, Ottawa, ON","93 Hobart crescent, Ottawa, ON"
219822,way,564788644,45.2751628,-75.7818687,,276,Fergus Crescent,house,"276 Fergus crescent, Ottawa, ON","276 Fergus crescent, Ottawa, ON"
6705,way,264034229,45.3927842,-75.7326314,,11,Geneva Street,house,"11 Geneva street, Ottawa, ON","11 Geneva street, Ottawa, ON"
205846,way,548802161,45.3387305,-75.6332302,,162,Maple Key Private,house,"162 Maple key private, Ottawa, ON","162 Maple key private, Ottawa, ON"
219142,way,564125353,45.2729992,-75.865342,,111,Overberg Way,house,"111 Overberg way, Ottawa, ON","111 Overberg way, Ottawa, ON"
169571,way,483274962,45.3914529,-75.6121469,,2431,Walkley Road,house,"2431 Walkley road, Ottawa, ON","2431 Walkley road, Ottawa, ON"
249496,way,585293609,45.4332966,-75.6358342,,934 A,Cummings Avenue,house,"934 A Cummings avenue, Ottawa, ON","934 A Cummings avenue, Ottawa, ON"
167014,way,483090040,45.3472923,-75.6491612,,2521,Fox Hollow Crescent,house,"2521 Fox hollow crescent, Ottawa, ON","2521 Fox hollow crescent, Ottawa, ON"
280659,way,619344294,45.4352197,-75.691687,,108,King Edward Avenue,house,"108 King edward avenue, Ottawa, ON","108 King edward avenue, Ottawa, ON"
197923,way,546954201,45.3658301,-75.6806985,,29,Sandhurst Court,house,"29 Sandhurst court, Ottawa, ON","29 Sandhurst court, Ottawa, ON"
248088,way,584500183,45.4087225,-75.6881505,,472,O'Connor Street,house,"472 O'connor street, Ottawa, ON","472 O'connor street, Ottawa, ON"
116761,way,473332278,45.3505644,-75.7963625,,46,Splinter Crescent,house,"46 Splinter crescent, Ottawa, ON","46 Splinter crescent, Ottawa, ON"
171337,way,483310585,45.4522311,-75.6023588,,2041,Gatineau View Crescent,house,"2041 Gatineau view crescent, Ottawa, ON","2041 Gatineau view crescent, Ottawa, ON"
287418,way,632236888,45.4280671,-75.6819635,,175,Stewart Street,house,"175 Stewart street, Ottawa, ON","175 Stewart street, Ottawa, ON"
143068,way,479511851,45.3896763,-75.6694141,,2098,Blossom Drive,house,"2098 Blossom drive, Ottawa, ON","2098 Blossom drive, Ottawa, ON"
66204,way,471811985,45.2756978,-75.9294585,,336,Horseshoe Crescent,house,"336 Horseshoe crescent, Ottawa, ON","336 Horseshoe crescent, Ottawa, ON"
241091,way,581766120,45.4718554,-75.5318534,,1714,Stoneboat Crescent,house,"1714 Stoneboat crescent, Ottawa, ON","1714 Stoneboat crescent, Ottawa, ON"
242616,way,582717297,45.3697479,-75.609264,,6,Chris Lund Private,house,"6 Chris lund private, Ottawa, ON","6 Chris lund private, Ottawa, ON"
207803,way,554579765,45.4269427,-75.6121389,,1300,Cedarcroft Crescent,house,"1300 Cedarcroft crescent, Ottawa, ON","1300 Cedarcroft crescent, Ottawa, ON"
206021,way,549075539,45.3927904,-75.7338006,,136,Clarendon Avenue,house,"136 Clarendon avenue, Ottawa, ON","136 Clarendon avenue, Ottawa, ON"
202311,way,547545450,45.400396,-75.6302993,,866,Smyth Road,house,"866 Smyth road, Ottawa, ON","866 Smyth road, Ottawa, ON"
114451,way,473210101,45.34871,-75.7283747,,12,Overlake Drive,house,"12 Overlake drive, Ottawa, ON","12 Overlake drive, Ottawa, ON"
242948,way,583034630,45.3927119,-75.6558463,,632,Thessaly Circle,house,"632 Thessaly circle, Ottawa, ON","632 Thessaly circle, Ottawa, ON"
264483,way,613971194,45.277028,-75.6979752,,226,Tewsley Drive,house,"226 Tewsley drive, Ottawa, ON","226 Tewsley drive, Ottawa, ON"
164303,way,483026746,45.370579,-75.6820735,,2616,Flannery Drive,house,"2616 Flannery drive, Ottawa, ON","2616 Flannery drive, Ottawa, ON"
114195,way,473209530,45.348763,-75.7276755,,11,Overlake Drive,house,"11 Overlake drive, Ottawa, ON","11 Overlake drive, Ottawa, ON"
171775,way,483442488,45.4248036,-75.6120916,,1364,Lily Lane,house,"1364 Lily lane, Ottawa, ON","1364 Lily lane, Ottawa, ON"
9829,way,327878890,45.3933989,-75.7418213,,455,Kensington Avenue,house,"455 Kensington avenue, Ottawa, ON","455 Kensington avenue, Ottawa, ON"
84153,way,472253089,45.3345002,-75.7826117,,31,Westfield Crescent,house,"31 Westfield crescent, Ottawa, ON","31 Westfield crescent, Ottawa, ON"
56561,way,471314714,45.2768786,-75.6983147,,218,Tewsley Drive,house,"218 Tewsley drive, Ottawa, ON","218 Tewsley drive, Ottawa, ON"
104702,way,472807300,45.2934961,-75.853219,,55,Waterthrush Crescent,house,"55 Waterthrush crescent, Ottawa, ON","55 Waterthrush crescent, Ottawa, ON"
230886,way,574618132,45.2830701,-75.8817884,,76,Castle Glen Crescent,house,"76 Castle glen crescent, Ottawa, ON","76 Castle glen crescent, Ottawa, ON"
246960,way,584077678,45.4313185,-75.6943457,,103,Guigues Avenue,house,"103 Guigues avenue, Ottawa, ON","103 Guigues avenue, Ottawa, ON"
156338,way,481889881,45.354365,-75.7050935,,9,Moorside Private,house,"9 Moorside private, Ottawa, ON","9 Moorside private, Ottawa, ON"
245491,way,583548909,45.3505186,-75.6493379,,2772,Pimlico Crescent,house,"2772 Pimlico crescent, Ottawa, ON","2772 Pimlico crescent, Ottawa, ON"
110317,way,473152548,45.3185797,-75.8374273,,52,Oberon Street,house,"52 Oberon street, Ottawa, ON","52 Oberon street, Ottawa, ON"
245554,way,583548974,45.350448,-75.6485172,,2749,Pimlico Crescent,house,"2749 Pimlico crescent, Ottawa, ON","2749 Pimlico crescent, Ottawa, ON"
202196,way,547499703,45.3611683,-75.7877195,,838,Forest Street South,house,"838 Forest street south, Ottawa, ON","838 Forest street south, Ottawa, ON"
22633,way,469777453,45.1524776,-75.598141,,5749,Bridget Street,house,"5749 Bridget street, Ottawa, ON","5749 Bridget street, Ottawa, ON"
176191,way,483739561,45.4294974,-75.6364171,,1207,Bowmount Street,house,"1207 Bowmount street, Ottawa, ON","1207 Bowmount street, Ottawa, ON"
57680,way,471316339,45.2757136,-75.6980447,,311,Riversedge Crescent,house,"311 Riversedge crescent, Ottawa, ON","311 Riversedge crescent, Ottawa, ON"
8230,way,307655255,45.4705549,-75.498781,,1538,Prestwick Drive,house,"1538 Prestwick drive, Ottawa, ON","1538 Prestwick drive, Ottawa, ON"
247642,way,584220542,45.4485864,-75.5868672,,106,Brilia Private,house,"106 Brilia private, Ottawa, ON","106 Brilia private, Ottawa, ON"
83358,way,472250046,45.3284356,-75.792074,,117,McClellan Road,house,"117 Mcclellan road, Ottawa, ON","117 Mcclellan road, Ottawa, ON"
187758,way,484749948,45.4849764,-75.5222612,,1179,Grenoble Crescent,house,"1179 Grenoble crescent, Ottawa, ON","1179 Grenoble crescent, Ottawa, ON"
119999,way,474010580,45.357224,-75.7271421,,1290,Meadowlands Drive East,house,"1290 Meadowlands drive east, Ottawa, ON","1290 Meadowlands drive east, Ottawa, ON"
220315,way,565117277,45.3735426,-75.781683,,1115,Ambleside Drive,house,"1115 Ambleside drive, Ottawa, ON","1115 Ambleside drive, Ottawa, ON"
197895,way,546954171,45.3631121,-75.6832004,,30,Walton Court,house,"30 Walton court, Ottawa, ON","30 Walton court, Ottawa, ON"
173163,way,483659849,45.3630552,-75.6436144,,65,Gentle Gate Crescent,house,"65 Gentle gate crescent, Ottawa, ON","65 Gentle gate crescent, Ottawa, ON"
167017,way,483090043,45.3461831,-75.6466608,,2674,Southdown Court,house,"2674 Southdown court, Ottawa, ON","2674 Southdown court, Ottawa, ON"
248189,way,584798949,45.4136449,-75.6772561,,162,Hawthorne Avenue,house,"162 Hawthorne avenue, Ottawa, ON","162 Hawthorne avenue, Ottawa, ON"
41335,way,470679167,45.4563392,-75.4601186,,2217,Nantes Street,house,"2217 Nantes street, Ottawa, ON","2217 Nantes street, Ottawa, ON"
46391,way,471117040,45.4563415,-75.4683768,,2070,Boisfranc Circle,house,"2070 Boisfranc circle, Ottawa, ON","2070 Boisfranc circle, Ottawa, ON"
169064,way,483246580,45.3820543,-75.6720394,,1133,Apolydore Avenue,house,"1133 Apolydore avenue, Ottawa, ON","1133 Apolydore avenue, Ottawa, ON"
196419,way,546734944,45.3313327,-75.7473806,,17,Foxmeadow Lane,house,"17 Foxmeadow lane, Ottawa, ON","17 Foxmeadow lane, Ottawa, ON"
38073,way,470444116,45.2637328,-75.7599465,,112,Fraser Fields Way,house,"112 Fraser fields way, Ottawa, ON","112 Fraser fields way, Ottawa, ON"
188011,way,484770258,45.4438557,-75.5331765,,6015,Pineglade Crescent,house,"6015 Pineglade crescent, Ottawa, ON","6015 Pineglade crescent, Ottawa, ON"
205681,way,548801954,45.3464032,-75.6369963,,2840,Gothwood Place,house,"2840 Gothwood place, Ottawa, ON","2840 Gothwood place, Ottawa, ON"
221069,way,566758639,45.3793306,-75.7386152,,1420,Laperriere Avenue,house,"1420 Laperriere avenue, Ottawa, ON","1420 Laperriere avenue, Ottawa, ON"
130200,way,474720309,45.3536815,-75.7740191,,2419,Iris Street,house,"2419 Iris street, Ottawa, ON","2419 Iris street, Ottawa, ON"
219775,way,564788595,45.2744533,-75.782478,,299,Fergus Crescent,house,"299 Fergus crescent, Ottawa, ON","299 Fergus crescent, Ottawa, ON"
230256,way,574544950,45.3052342,-75.9356144,,238,Halyard Way,house,"238 Halyard way, Ottawa, ON","238 Halyard way, Ottawa, ON"
7197,way,287735053,45.4048938,-75.6593105,,178,Cluny Street,house,"178 Cluny street, Ottawa, ON","178 Cluny street, Ottawa, ON"
13321,way,387272685,45.3912101,-75.7441049,,170,Nora Street,house,"170 Nora street, Ottawa, ON","170 Nora street, Ottawa, ON"
4719,way,240554970,45.4037102,-75.7445913,,164,Carleton Avenue,house,"164 Carleton avenue, Ottawa, ON","164 Carleton avenue, Ottawa, ON"
19397,way,459925621,45.4521117,-75.6105325,,23,Wick Crescent,house,"23 Wick crescent, Ottawa, ON","23 Wick crescent, Ottawa, ON"
247749,way,584306642,45.3928161,-75.6863334,,364,Sunnyside Avenue,house,"364 Sunnyside avenue, Ottawa, ON","364 Sunnyside avenue, Ottawa, ON"
187854,way,484767481,45.4836583,-75.5319481,,1052,Avignon Court,house,"1052 Avignon court, Ottawa, ON","1052 Avignon court, Ottawa, ON"
249413,way,585239428,45.4295759,-75.6353957,,4816,Hendon Way,house,"4816 Hendon way, Ottawa, ON","4816 Hendon way, Ottawa, ON"
9834,way,329050793,45.3699682,-75.772662,,486,Ancaster Avenue,house,"486 Ancaster avenue, Ottawa, ON","486 Ancaster avenue, Ottawa, ON"
235932,way,578686970,45.420368,-75.6105268,,1460,Foxwell Street,house,"1460 Foxwell street, Ottawa, ON","1460 Foxwell street, Ottawa, ON"
262037,way,612827840,45.2821788,-75.7112893,,123,Waterbridge Drive,house,"123 Waterbridge drive, Ottawa, ON","123 Waterbridge drive, Ottawa, ON"
57014,way,471315537,45.2812888,-75.7101228,,92,Waterbridge Drive,house,"92 Waterbridge drive, Ottawa, ON","92 Waterbridge drive, Ottawa, ON"
198796,way,547157348,45.3642534,-75.7469504,,1217,Maitland Avenue,house,"1217 Maitland avenue, Ottawa, ON","1217 Maitland avenue, Ottawa, ON"
229280,way,573355391,45.3493717,-75.6618774,,1383,Plante Drive,house,"1383 Plante drive, Ottawa, ON","1383 Plante drive, Ottawa, ON"
66182,way,471811963,45.2757643,-75.9301519,,242,Horseshoe Crescent,house,"242 Horseshoe crescent, Ottawa, ON","242 Horseshoe crescent, Ottawa, ON"
7020,way,273182577,45.3786899,-75.7584589,,711,Fraser Avenue,house,"711 Fraser avenue, Ottawa, ON","711 Fraser avenue, Ottawa, ON"
236002,way,578687112,45.420256,-75.6095472,,1721,Dondale Street,house,"1721 Dondale street, Ottawa, ON","1721 Dondale street, Ottawa, ON"
193353,way,545360486,45.3643231,-75.7924709,,325,Poulin Avenue,house,"325 Poulin avenue, Ottawa, ON","325 Poulin avenue, Ottawa, ON"
19474,way,460106028,45.4126365,-75.6982441,,500,Gilmour Street,house,"500 Gilmour street, Ottawa, ON","500 Gilmour street, Ottawa, ON"
163394,way,482920318,45.3653556,-75.6812852,,40,Sandhurst Court,house,"40 Sandhurst court, Ottawa, ON","40 Sandhurst court, Ottawa, ON"
41338,way,470679173,45.4572514,-75.4594505,,1505,Comfrey Crescent,house,"1505 Comfrey crescent, Ottawa, ON","1505 Comfrey crescent, Ottawa, ON"
92306,way,472380811,45.2913641,-75.8743089,,65,Shouldice Crescent,house,"65 Shouldice crescent, Ottawa, ON","65 Shouldice crescent, Ottawa, ON"
219990,way,564878512,45.2710945,-75.7808201,,167,Popplewell Crescent,house,"167 Popplewell crescent, Ottawa, ON","167 Popplewell crescent, Ottawa, ON"
9554,way,321499889,45.4402275,-75.6579443,,328,Joffre-Bélanger Way,house,"328 Joffre-bélanger way, Ottawa, ON","328 Joffre-bélanger way, Ottawa, ON"
238629,way,580571095,45.4970369,-75.4672602,,653,Cartographe Street,house,"653 Cartographe street, Ottawa, ON","653 Cartographe street, Ottawa, ON"
6708,way,264084412,45.3987915,-75.7476912,,145,Premier Avenue East,house,"145 Premier avenue east, Ottawa, ON","145 Premier avenue east, Ottawa, ON"
37199,way,470442395,45.272761,-75.7497343,,65,Exeter Drive,house,"65 Exeter drive, Ottawa, ON","65 Exeter drive, Ottawa, ON"
224458,way,568609073,45.3703074,-75.6220862,,85,Wallack Private,house,"85 Wallack private, Ottawa, ON","85 Wallack private, Ottawa, ON"
239940,way,581743049,45.4759131,-75.5019266,,1395,Coulter Place,house,"1395 Coulter place, Ottawa, ON","1395 Coulter place, Ottawa, ON"
100339,way,472630731,45.2798481,-75.8513997,,241,Saddlesmith Circle,house,"241 Saddlesmith circle, Ottawa, ON","241 Saddlesmith circle, Ottawa, ON"
156203,way,481825574,45.4087922,-75.6856596,,74,Patterson Avenue,house,"74 Patterson avenue, Ottawa, ON","74 Patterson avenue, Ottawa, ON"
25402,way,469953453,45.1613264,-75.9389335,,7,Tarywood Court,house,"7 Tarywood court, Ottawa, ON","7 Tarywood court, Ottawa, ON"
19331,way,459913058,45.4567881,-75.6175396,,22,Burrows Road,house,"22 Burrows road, Ottawa, ON","22 Burrows road, Ottawa, ON"
132902,way,475076304,45.3852055,-75.7541796,,575,Cole Avenue,house,"575 Cole avenue, Ottawa, ON","575 Cole avenue, Ottawa, ON"
6677,way,264029417,45.3917001,-75.7335747,,7,Edina Street,house,"7 Edina street, Ottawa, ON","7 Edina street, Ottawa, ON"
222604,way,567539382,45.3545674,-75.6680137,,142,Owl Drive,house,"142 Owl drive, Ottawa, ON","142 Owl drive, Ottawa, ON"
8012,way,307250559,45.4236298,-75.6510344,,342 A,Presland Road,house,"342 A Presland road, Ottawa, ON","342 A Presland road, Ottawa, ON"
64341,way,471792930,45.3605558,-75.9403235,,941,March Road,house,"941 March road, Ottawa, ON","941 March road, Ottawa, ON"
120000,way,474010581,45.3538669,-75.7247304,,29,Woodmount Crescent,house,"29 Woodmount crescent, Ottawa, ON","29 Woodmount crescent, Ottawa, ON"
63171,way,471675888,45.3312703,-75.7475171,,15,Foxmeadow Lane,house,"15 Foxmeadow lane, Ottawa, ON","15 Foxmeadow lane, Ottawa, ON"
282204,way,620524287,45.3211801,-75.6046722,,679,White Alder Avenue,house,"679 White alder avenue, Ottawa, ON","679 White alder avenue, Ottawa, ON"
9952,way,336914768,45.4471917,-75.6485113,,426,Apple Tree Lane,house,"426 Apple tree lane, Ottawa, ON","426 Apple tree lane, Ottawa, ON"
242988,way,583034670,45.3910121,-75.6690402,,2056,Blossom Drive,house,"2056 Blossom drive, Ottawa, ON","2056 Blossom drive, Ottawa, ON"
191885,way,541589548,45.2610555,-75.763257,,269,Harthill Way,house,"269 Harthill way, Ottawa, ON","269 Harthill way, Ottawa, ON"
63189,way,471675906,45.3322208,-75.7467497,,126,Benlea Drive,house,"126 Benlea drive, Ottawa, ON","126 Benlea drive, Ottawa, ON"
193458,way,545956048,45.3467841,-75.6493916,,2578,Fox Hollow Crescent,house,"2578 Fox hollow crescent, Ottawa, ON","2578 Fox hollow crescent, Ottawa, ON"
7353,way,287881495,45.4078416,-75.6561476,,1587,Dorion Avenue,house,"1587 Dorion avenue, Ottawa, ON","1587 Dorion avenue, Ottawa, ON"
16741,way,445832507,45.1695542,-75.6949835,,6209,Second Line Road South,house,"6209 Second line road south, Ottawa, ON","6209 Second line road south, Ottawa, ON"
114121,way,473209367,45.3478538,-75.7246655,,29,Redpine Drive,house,"29 Redpine drive, Ottawa, ON","29 Redpine drive, Ottawa, ON"
280315,way,619204915,45.4422217,-75.6916509,,34,Charles Street,house,"34 Charles street, Ottawa, ON","34 Charles street, Ottawa, ON"
168568,way,483215295,45.3585899,-75.6415073,,90,Patola Private,house,"90 Patola private, Ottawa, ON","90 Patola private, Ottawa, ON"
220649,way,565632072,45.2883556,-75.7303347,,151,Springbeauty Avenue,house,"151 Springbeauty avenue, Ottawa, ON","151 Springbeauty avenue, Ottawa, ON"
56825,way,471315072,45.2835667,-75.7044901,,79,Selhurst Avenue,house,"79 Selhurst avenue, Ottawa, ON","79 Selhurst avenue, Ottawa, ON"
8397,way,309597058,45.4728378,-75.497274,,378,Amiens Street,house,"378 Amiens street, Ottawa, ON","378 Amiens street, Ottawa, ON"
41831,way,470705186,45.4493062,-75.4789735,,34,St. Alexi Walk,house,"34 St. alexi walk, Ottawa, ON","34 St. alexi walk, Ottawa, ON"
83759,way,472250465,45.3270212,-75.7896624,,165,McClellan Road,house,"165 Mcclellan road, Ottawa, ON","165 Mcclellan road, Ottawa, ON"
225103,way,569136295,45.3769968,-75.6527609,,2839,Cedarwood Drive,house,"2839 Cedarwood drive, Ottawa, ON","2839 Cedarwood drive, Ottawa, ON"
196479,way,546735004,45.3337074,-75.7490524,,310,Dalehurst Drive,house,"310 Dalehurst drive, Ottawa, ON","310 Dalehurst drive, Ottawa, ON"
17936,way,447741561,45.4502764,-75.4897166,,217,Chinian Street,house,"217 Chinian street, Ottawa, ON","217 Chinian street, Ottawa, ON"
141848,way,479197117,45.2747482,-75.7607336,,19,Whelan Drive,house,"19 Whelan drive, Ottawa, ON","19 Whelan drive, Ottawa, ON"
15407,way,441854040,45.3997639,-75.723124,,104,Melrose Avenue,house,"104 Melrose avenue, Ottawa, ON","104 Melrose avenue, Ottawa, ON"
229425,way,573377456,45.4375049,-75.6463173,,694,Morin Street,house,"694 Morin street, Ottawa, ON","694 Morin street, Ottawa, ON"
227990,way,572437942,45.3633539,-75.7114083,,1519,Fisher Avenue,house,"1519 Fisher avenue, Ottawa, ON","1519 Fisher avenue, Ottawa, ON"
18999,way,459096196,45.44223,-75.6920817,,78,John Street,house,"78 John street, Ottawa, ON","78 John street, Ottawa, ON"
81850,way,472236432,45.3283844,-75.7767473,,74,Elvaston Avenue,house,"74 Elvaston avenue, Ottawa, ON","74 Elvaston avenue, Ottawa, ON"
106638,way,473061492,45.3128638,-75.925087,,19,Goldora Private,house,"19 Goldora private, Ottawa, ON","19 Goldora private, Ottawa, ON"
247352,way,584188410,45.4442617,-75.6072919,,1157,Chimney Hill Way,house,"1157 Chimney hill way, Ottawa, ON","1157 Chimney hill way, Ottawa, ON"
202537,way,547558708,45.3747545,-75.761856,,1940,Bromley Road,house,"1940 Bromley road, Ottawa, ON","1940 Bromley road, Ottawa, ON"
242291,way,582422712,45.3772026,-75.6726435,,2424,Falcon Avenue,house,"2424 Falcon avenue, Ottawa, ON","2424 Falcon avenue, Ottawa, ON"
236044,way,578687154,45.418784,-75.6066664,,1633,Fine Crescent,house,"1633 Fine crescent, Ottawa, ON","1633 Fine crescent, Ottawa, ON"
249447,way,585239464,45.4288795,-75.635386,,1238,Bowmount Street,house,"1238 Bowmount street, Ottawa, ON","1238 Bowmount street, Ottawa, ON"
203684,way,547781660,45.4760229,-75.5452074,,1077,St. Lucia Place,house,"1077 St. lucia place, Ottawa, ON","1077 St. lucia place, Ottawa, ON"
156345,way,481889888,45.3539819,-75.7054594,,1089,Borden Side Road,house,"1089 Borden side road, Ottawa, ON","1089 Borden side road, Ottawa, ON"
289237,way,655423940,45.4210372,-76.0179103,,2730,Dunrobin Road,house,"2730 Dunrobin road, Ottawa, ON","2730 Dunrobin road, Ottawa, ON"
41793,way,470705143,45.4513478,-75.4774422,,505,Lakeridge Drive,house,"505 Lakeridge drive, Ottawa, ON","505 Lakeridge drive, Ottawa, ON"
241778,way,582099216,45.3789128,-75.7252802,,1191,Summerville Avenue,house,"1191 Summerville avenue, Ottawa, ON","1191 Summerville avenue, Ottawa, ON"
8949,way,318389283,45.3640623,-75.7951307,,311,Britannia Road,house,"311 Britannia road, Ottawa, ON","311 Britannia road, Ottawa, ON"
243018,way,583050436,45.3633312,-75.6430326,,107,Alliance Private,house,"107 Alliance private, Ottawa, ON","107 Alliance private, Ottawa, ON"
203773,way,547783516,45.4677798,-75.553813,,1141,Burgundy Lane,house,"1141 Burgundy lane, Ottawa, ON","1141 Burgundy lane, Ottawa, ON"
247343,way,584188401,45.4447776,-75.6082276,,1132,Chimney Hill Way,house,"1132 Chimney hill way, Ottawa, ON","1132 Chimney hill way, Ottawa, ON"
19236,way,459478501,45.4513814,-75.614771,,1356,Whippoorwill Drive,house,"1356 Whippoorwill drive, Ottawa, ON","1356 Whippoorwill drive, Ottawa, ON"
23709,way,469799454,45.190008,-75.8342735,,85,Strachan Street,house,"85 Strachan street, Ottawa, ON","85 Strachan street, Ottawa, ON"
46280,way,471116925,45.4565924,-75.4719331,,775,Larcastle Circle,house,"775 Larcastle circle, Ottawa, ON","775 Larcastle circle, Ottawa, ON"
238297,way,580510209,45.4393337,-75.4941938,,304,Willow Aster Circle,house,"304 Willow aster circle, Ottawa, ON","304 Willow aster circle, Ottawa, ON"
262517,way,613031175,45.2774021,-75.7313385,,232,Deerfox Drive,house,"232 Deerfox drive, Ottawa, ON","232 Deerfox drive, Ottawa, ON"
153331,way,481367164,45.4211789,-75.674479,,236,Russell Avenue,house,"236 Russell avenue, Ottawa, ON","236 Russell avenue, Ottawa, ON"
149001,way,479919365,45.3651145,-75.7087129,,351,Kintyre Private,house,"351 Kintyre private, Ottawa, ON","351 Kintyre private, Ottawa, ON"
175129,way,483712648,45.4399275,-75.6394765,,690,Cummings Avenue,house,"690 Cummings avenue, Ottawa, ON","690 Cummings avenue, Ottawa, ON"
195560,way,546684968,45.3163872,-75.8397891,,41,Westcliffe Road,house,"41 Westcliffe road, Ottawa, ON","41 Westcliffe road, Ottawa, ON"
196470,way,546734995,45.332818,-75.7472425,,132,Benlea Drive,house,"132 Benlea drive, Ottawa, ON","132 Benlea drive, Ottawa, ON"
227879,way,572437671,45.3643011,-75.7113224,,609,Trelawny Private,house,"609 Trelawny private, Ottawa, ON","609 Trelawny private, Ottawa, ON"
27555,way,470024412,45.2192568,-75.9592868,,7131,Fernbank Road,house,"7131 Fernbank road, Ottawa, ON","7131 Fernbank road, Ottawa, ON"
250024,way,585757458,45.4044629,-75.7073063,,440,Arlington Avenue,house,"440 Arlington avenue, Ottawa, ON","440 Arlington avenue, Ottawa, ON"
198959,way,547162156,45.353704,-75.7245885,,25,Woodmount Crescent,house,"25 Woodmount crescent, Ottawa, ON","25 Woodmount crescent, Ottawa, ON"
114340,way,473209860,45.3466728,-75.7231613,,39,Biscayne Crescent,house,"39 Biscayne crescent, Ottawa, ON","39 Biscayne crescent, Ottawa, ON"
243535,way,583085028,45.439997,-75.6009579,,1872,Cloverlawn Crescent,house,"1872 Cloverlawn crescent, Ottawa, ON","1872 Cloverlawn crescent, Ottawa, ON"
250368,way,586069874,45.3954353,-75.758618,,276,Atlantis Avenue,house,"276 Atlantis avenue, Ottawa, ON","276 Atlantis avenue, Ottawa, ON"
216535,way,562101149,45.4010189,-75.7152401,,88,Young Street,house,"88 Young street, Ottawa, ON","88 Young street, Ottawa, ON"
8691,way,317701126,45.4063661,-75.6611683,,1664,Abbey Road,house,"1664 Abbey road, Ottawa, ON","1664 Abbey road, Ottawa, ON"
221296,way,566793126,45.4358036,-75.5450615,,2529,Cléroux Crescent,house,"2529 Cléroux crescent, Ottawa, ON","2529 Cléroux crescent, Ottawa, ON"
114323,way,473209827,45.3477508,-75.7248971,,31,Redpine Drive,house,"31 Redpine drive, Ottawa, ON","31 Redpine drive, Ottawa, ON"
192073,way,542006794,45.383334,-75.7453258,,277,Currell Avenue,house,"277 Currell avenue, Ottawa, ON","277 Currell avenue, Ottawa, ON"
243530,way,583085023,45.4400222,-75.6000465,,1859,Cloverlawn Crescent,house,"1859 Cloverlawn crescent, Ottawa, ON","1859 Cloverlawn crescent, Ottawa, ON"
197901,way,546954177,45.3633561,-75.6839674,,2861,Flannery Drive,house,"2861 Flannery drive, Ottawa, ON","2861 Flannery drive, Ottawa, ON"
10506,way,358360612,45.483245,-75.5305029,,967,Avignon Court,house,"967 Avignon court, Ottawa, ON","967 Avignon court, Ottawa, ON"
238384,way,580513446,45.4528209,-75.4679738,,709,Annisettes Ridge,house,"709 Annisettes ridge, Ottawa, ON","709 Annisettes ridge, Ottawa, ON"
14883,way,422269293,45.2760926,-75.7558036,,12,Dolan Drive,house,"12 Dolan drive, Ottawa, ON","12 Dolan drive, Ottawa, ON"
267629,way,614532327,45.2512293,-75.9151337,,11,Brae Crescent,house,"11 Brae crescent, Ottawa, ON","11 Brae crescent, Ottawa, ON"
191907,way,541589570,45.2623114,-75.7618421,,279,Broxburn Crescent,house,"279 Broxburn crescent, Ottawa, ON","279 Broxburn crescent, Ottawa, ON"
129554,way,474717530,45.3571459,-75.7943838,,866,Pinecrest Road,house,"866 Pinecrest road, Ottawa, ON","866 Pinecrest road, Ottawa, ON"
138859,way,478859518,45.3920213,-75.6882792,,404,Sunnyside Avenue,house,"404 Sunnyside avenue, Ottawa, ON","404 Sunnyside avenue, Ottawa, ON"
220146,way,564878696,45.2720482,-75.7817598,,1015,Cobble Hill Drive,house,"1015 Cobble hill drive, Ottawa, ON","1015 Cobble hill drive, Ottawa, ON"
132892,way,475076284,45.3853697,-75.7543106,,567,Cole Avenue,house,"567 Cole avenue, Ottawa, ON","567 Cole avenue, Ottawa, ON"
234608,way,578149631,45.3933486,-75.6098417,,2326 B,Russell Road,house,"2326 B Russell road, Ottawa, ON","2326 B Russell road, Ottawa, ON"
165962,way,483056469,45.3840733,-75.6744334,,3,Talback Place,house,"3 Talback place, Ottawa, ON","3 Talback place, Ottawa, ON"
9351,way,319651719,45.405625,-75.64809,,488,Braydon Avenue,house,"488 Braydon avenue, Ottawa, ON","488 Braydon avenue, Ottawa, ON"
21937,way,469765092,45.144867,-75.6110899,,5491,Osgoode Main Street,house,"5491 Osgoode main street, Ottawa, ON","5491 Osgoode main street, Ottawa, ON"
282185,way,620524268,45.3225253,-75.6032116,,737,White Alder Avenue,house,"737 White alder avenue, Ottawa, ON","737 White alder avenue, Ottawa, ON"
185927,way,484711776,45.483819,-75.509959,,902,Sandpiper Court,house,"902 Sandpiper court, Ottawa, ON","902 Sandpiper court, Ottawa, ON"
12483,way,385058854,45.4087504,-75.7297549,,26,Stonehurst Avenue,house,"26 Stonehurst avenue, Ottawa, ON","26 Stonehurst avenue, Ottawa, ON"
279255,way,618350793,45.4337864,-75.6442321,,546,Guy Street,house,"546 Guy street, Ottawa, ON","546 Guy street, Ottawa, ON"
41127,way,470678770,45.4569902,-75.465021,,2189,Sojourn Street,house,"2189 Sojourn street, Ottawa, ON","2189 Sojourn street, Ottawa, ON"
242767,way,582753816,45.3833957,-75.6425993,,1851,Featherston Drive,house,"1851 Featherston drive, Ottawa, ON","1851 Featherston drive, Ottawa, ON"
121864,way,474081711,45.4759155,-75.4580755,,2171,Mondavi Street,house,"2171 Mondavi street, Ottawa, ON","2171 Mondavi street, Ottawa, ON"
41125,way,470678765,45.4587878,-75.4622726,,2158,Nantes Street,house,"2158 Nantes street, Ottawa, ON","2158 Nantes street, Ottawa, ON"
172737,way,483482127,45.4017455,-75.6280229,,1884,Russell Road,house,"1884 Russell road, Ottawa, ON","1884 Russell road, Ottawa, ON"
168844,way,483246279,45.378534,-75.663964,,1611 A,Edge Hill Place,house,"1611 A Edge hill place, Ottawa, ON","1611 A Edge hill place, Ottawa, ON"
266826,way,614356639,45.2943598,-75.8847422,,77,Castlefrank Road,house,"77 Castlefrank road, Ottawa, ON","77 Castlefrank road, Ottawa, ON"
207869,way,554579836,45.4240625,-75.6115565,,1150,Cedarcroft Crescent,house,"1150 Cedarcroft crescent, Ottawa, ON","1150 Cedarcroft crescent, Ottawa, ON"
239383,way,581041647,45.4580695,-75.5929183,,2206,Bickerton Avenue,house,"2206 Bickerton avenue, Ottawa, ON","2206 Bickerton avenue, Ottawa, ON"
114286,way,473209741,45.3458973,-75.7225041,,49,Biscayne Crescent,house,"49 Biscayne crescent, Ottawa, ON","49 Biscayne crescent, Ottawa, ON"
10528,way,358360639,45.4827265,-75.5256951,,7901,Jeanne-d'Arc Boulevard North,house,"7901 Jeanne-d'arc boulevard north, Ottawa, ON","7901 Jeanne-d'arc boulevard north, Ottawa, ON"
229507,way,573598893,45.444891,-75.6431101,,501,Brittany Drive,house,"501 Brittany drive, Ottawa, ON","501 Brittany drive, Ottawa, ON"
24653,way,469944061,45.3602138,-75.9866416,,1630,Marchurst Road,house,"1630 Marchurst road, Ottawa, ON","1630 Marchurst road, Ottawa, ON"
6194,way,259295645,45.3906645,-75.7328023,,645,Island Park Drive,house,"645 Island park drive, Ottawa, ON","645 Island park drive, Ottawa, ON"
172876,way,483482288,45.4023994,-75.6285858,,1869,Russell Road,house,"1869 Russell road, Ottawa, ON","1869 Russell road, Ottawa, ON"
104974,way,472844081,45.3512338,-75.7093775,,21,Homestead Street,house,"21 Homestead street, Ottawa, ON","21 Homestead street, Ottawa, ON"
219884,way,564788753,45.274776,-75.7855776,,196,Camden Private,house,"196 Camden private, Ottawa, ON","196 Camden private, Ottawa, ON"
17931,way,447741506,45.4501623,-75.4792855,,248,Monaco Place,house,"248 Monaco place, Ottawa, ON","248 Monaco place, Ottawa, ON"
24435,way,469941425,45.3471476,-75.995033,,103,Topol Lane,house,"103 Topol lane, Ottawa, ON","103 Topol lane, Ottawa, ON"
233361,way,577234039,45.2447127,-75.5657369,,6623,Calwood Avenue,house,"6623 Calwood avenue, Ottawa, ON","6623 Calwood avenue, Ottawa, ON"
224875,way,568814552,45.4850146,-75.5323557,,860,Beauclaire Drive,house,"860 Beauclaire drive, Ottawa, ON","860 Beauclaire drive, Ottawa, ON"
57358,way,471315972,45.283465,-75.7068716,,39,Cresthaven Drive,house,"39 Cresthaven drive, Ottawa, ON","39 Cresthaven drive, Ottawa, ON"
156144,way,481825493,45.409403,-75.6850043,,47,Patterson Avenue,house,"47 Patterson avenue, Ottawa, ON","47 Patterson avenue, Ottawa, ON"
8065,way,307397299,45.4690148,-75.4967647,,1566,Payette Drive,house,"1566 Payette drive, Ottawa, ON","1566 Payette drive, Ottawa, ON"
198680,way,547147471,45.350423,-75.6519154,,2875,Millstream Way,house,"2875 Millstream way, Ottawa, ON","2875 Millstream way, Ottawa, ON"
220023,way,564878546,45.271371,-75.782143,,122,Hawkshaw Crescent,house,"122 Hawkshaw crescent, Ottawa, ON","122 Hawkshaw crescent, Ottawa, ON"
223824,way,568517774,45.4825673,-75.5267166,,7844,Décarie Drive,house,"7844 Décarie drive, Ottawa, ON","7844 Décarie drive, Ottawa, ON"
197897,way,546954173,45.3634257,-75.6831967,,2845,Flannery Drive,house,"2845 Flannery drive, Ottawa, ON","2845 Flannery drive, Ottawa, ON"
148723,way,479811127,45.3686462,-75.7152583,,1412,Fisher Avenue,house,"1412 Fisher avenue, Ottawa, ON","1412 Fisher avenue, Ottawa, ON"
205233,way,548797963,45.3444213,-75.6695129,,53,Erin Crescent,house,"53 Erin crescent, Ottawa, ON","53 Erin crescent, Ottawa, ON"
7186,way,287732090,45.4056932,-75.6570573,,222,Knox Crescent,house,"222 Knox crescent, Ottawa, ON","222 Knox crescent, Ottawa, ON"
37809,way,470443844,45.2741722,-75.7616252,,200,Sherway Drive,house,"200 Sherway drive, Ottawa, ON","200 Sherway drive, Ottawa, ON"
244585,way,583394686,45.4443271,-75.6292705,,4,Seth Private,house,"4 Seth private, Ottawa, ON","4 Seth private, Ottawa, ON"
55476,way,471309116,45.277696,-75.7316936,,255,Deerfox Drive,house,"255 Deerfox drive, Ottawa, ON","255 Deerfox drive, Ottawa, ON"
155583,way,481782918,45.4161808,-75.6876058,,181,Waverley Street,house,"181 Waverley street, Ottawa, ON","181 Waverley street, Ottawa, ON"
202625,way,547558796,45.369928,-75.7771796,,2312,Lawn Avenue,house,"2312 Lawn avenue, Ottawa, ON","2312 Lawn avenue, Ottawa, ON"
129020,way,474664045,45.2436344,-75.9114502,,199,Hartsmere Drive,house,"199 Hartsmere drive, Ottawa, ON","199 Hartsmere drive, Ottawa, ON"
245510,way,583548928,45.3515312,-75.6498709,,2635,Pimlico Crescent,house,"2635 Pimlico crescent, Ottawa, ON","2635 Pimlico crescent, Ottawa, ON"
7109,way,282355762,45.4641584,-75.5049073,,1628,Marcoux Drive,house,"1628 Marcoux drive, Ottawa, ON","1628 Marcoux drive, Ottawa, ON"
224895,way,568816532,45.4837417,-75.5314757,,1070,Avignon Court,house,"1070 Avignon court, Ottawa, ON","1070 Avignon court, Ottawa, ON"
225032,way,569025221,45.3777489,-75.6486132,,2866,Sandalwood Drive,house,"2866 Sandalwood drive, Ottawa, ON","2866 Sandalwood drive, Ottawa, ON"
5939,way,257905312,45.3756199,-75.7537152,,844,Broadview Avenue,house,"844 Broadview avenue, Ottawa, ON","844 Broadview avenue, Ottawa, ON"
286117,way,628932509,45.3522792,-75.7991279,,2988,Richmond Road,house,"2988 Richmond road, Ottawa, ON","2988 Richmond road, Ottawa, ON"
117453,way,473666470,45.3452104,-75.7722926,,16,Covington Place,house,"16 Covington place, Ottawa, ON","16 Covington place, Ottawa, ON"
153325,way,481367155,45.4170601,-75.6779583,,62,Greenfield Avenue,house,"62 Greenfield avenue, Ottawa, ON","62 Greenfield avenue, Ottawa, ON"
6444,way,261975693,45.3922325,-75.7291624,,125,Ruskin Street,house,"125 Ruskin street, Ottawa, ON","125 Ruskin street, Ottawa, ON"
221785,way,567216429,45.2791822,-75.7462766,,116,Highbury Park Drive,house,"116 Highbury park drive, Ottawa, ON","116 Highbury park drive, Ottawa, ON"
66432,way,471812258,45.2754784,-75.9298184,,252,Horseshoe Crescent,house,"252 Horseshoe crescent, Ottawa, ON","252 Horseshoe crescent, Ottawa, ON"
193590,way,546225926,45.3462301,-75.6466393,,2676,Southdown Court,house,"2676 Southdown court, Ottawa, ON","2676 Southdown court, Ottawa, ON"
19275,way,459665027,45.412537,-75.6993791,,531,Gilmour Street,house,"531 Gilmour street, Ottawa, ON","531 Gilmour street, Ottawa, ON"
289061,way,648987625,45.5428147,-75.290681,,321,Ste. Anne Street,house,"321 Ste. anne street, Ottawa, ON","321 Ste. anne street, Ottawa, ON"
13386,way,388355516,45.4324296,-75.6858106,,318,Murray Street,house,"318 Murray street, Ottawa, ON","318 Murray street, Ottawa, ON"
83505,way,472250194,45.3260196,-75.7912092,,105,Hobart Crescent,house,"105 Hobart crescent, Ottawa, ON","105 Hobart crescent, Ottawa, ON"
19329,way,459912131,45.4549304,-75.6147987,,46,Whippoorwill Drive,house,"46 Whippoorwill drive, Ottawa, ON","46 Whippoorwill drive, Ottawa, ON"
258254,way,604017212,45.3972112,-75.7128975,,182,Hickory Street,house,"182 Hickory street, Ottawa, ON","182 Hickory street, Ottawa, ON"
33234,way,470294109,45.4769375,-75.4506361,,2345,Glandriel Crescent,house,"2345 Glandriel crescent, Ottawa, ON","2345 Glandriel crescent, Ottawa, ON"
225686,way,569434577,45.3515715,-75.7276566,,54 A,Chesterton Drive,house,"54 A Chesterton drive, Ottawa, ON","54 A Chesterton drive, Ottawa, ON"
229615,way,573782289,45.460173,-75.5955471,,699,Eastvale Court,house,"699 Eastvale court, Ottawa, ON","699 Eastvale court, Ottawa, ON"
18695,way,458181197,45.432211,-75.6923708,,167,Guigues Avenue,house,"167 Guigues avenue, Ottawa, ON","167 Guigues avenue, Ottawa, ON"
173078,way,483547763,45.4491567,-75.6320384,,501,Foxview Place,house,"501 Foxview place, Ottawa, ON","501 Foxview place, Ottawa, ON"
135600,way,475412694,45.352775,-75.7518525,,25 C,Deerfield Drive,house,"25 C Deerfield drive, Ottawa, ON","25 C Deerfield drive, Ottawa, ON"
243475,way,583078956,45.4479923,-75.5873389,,1004,Shefford Road,house,"1004 Shefford road, Ottawa, ON","1004 Shefford road, Ottawa, ON"
242584,way,582714321,45.3698507,-75.6164115,,71,Ted Grant Private,house,"71 Ted grant private, Ottawa, ON","71 Ted grant private, Ottawa, ON"
222548,way,567539325,45.3538517,-75.6658975,,212,Owl Drive,house,"212 Owl drive, Ottawa, ON","212 Owl drive, Ottawa, ON"
7084,way,278130705,44.9836679,-75.8014677,,7728,Mill Pond Lane,house,"7728 Mill pond lane, Ottawa, ON","7728 Mill pond lane, Ottawa, ON"
162574,way,482836923,45.3482969,-75.629985,,1591,Fortier Street,house,"1591 Fortier street, Ottawa, ON","1591 Fortier street, Ottawa, ON"
235093,way,578259585,45.3979302,-75.7117656,,149,Hickory Street,house,"149 Hickory street, Ottawa, ON","149 Hickory street, Ottawa, ON"
220132,way,564878682,45.2730127,-75.7818719,,1044,Cobble Hill Drive,house,"1044 Cobble hill drive, Ottawa, ON","1044 Cobble hill drive, Ottawa, ON"
189015,way,486245642,45.27463,-75.7549095,,62,Antler Avenue,house,"62 Antler avenue, Ottawa, ON","62 Antler avenue, Ottawa, ON"
203774,way,547783517,45.4679653,-75.5539276,,1145,Burgundy Lane,house,"1145 Burgundy lane, Ottawa, ON","1145 Burgundy lane, Ottawa, ON"
264437,way,613971138,45.2751794,-75.6865845,,805,Hot Springs Way,house,"805 Hot springs way, Ottawa, ON","805 Hot springs way, Ottawa, ON"
8689,way,317700613,45.4062774,-75.6605056,,1659,Abbey Road,house,"1659 Abbey road, Ottawa, ON","1659 Abbey road, Ottawa, ON"
197210,way,546744054,45.3381157,-75.7834024,,34,Meadowbank Drive,house,"34 Meadowbank drive, Ottawa, ON","34 Meadowbank drive, Ottawa, ON"
105169,way,472844352,45.3513211,-75.7114044,,1,Four Seasons Drive,house,"1 Four seasons drive, Ottawa, ON","1 Four seasons drive, Ottawa, ON"
244926,way,583395039,45.4352993,-75.6263901,,988,Charlton Drive,house,"988 Charlton drive, Ottawa, ON","988 Charlton drive, Ottawa, ON"
288033,way,633357903,45.3846157,-75.9523803,,515,Cameron Harvey Drive,house,"515 Cameron harvey drive, Ottawa, ON","515 Cameron harvey drive, Ottawa, ON"
149074,way,479919475,45.3601428,-75.7149141,,21,Wigan Drive,house,"21 Wigan drive, Ottawa, ON","21 Wigan drive, Ottawa, ON"
22655,way,469777480,45.1519494,-75.5999216,,5704,Andrasi Crescent,house,"5704 Andrasi crescent, Ottawa, ON","5704 Andrasi crescent, Ottawa, ON"
245570,way,583548990,45.3501961,-75.6497754,,2803,Pimlico Crescent,house,"2803 Pimlico crescent, Ottawa, ON","2803 Pimlico crescent, Ottawa, ON"
206027,way,549075545,45.3960642,-75.7351313,,65,Clarendon Avenue,house,"65 Clarendon avenue, Ottawa, ON","65 Clarendon avenue, Ottawa, ON"
171022,way,483307367,45.4579447,-75.5928642,,2204,Bickerton Avenue,house,"2204 Bickerton avenue, Ottawa, ON","2204 Bickerton avenue, Ottawa, ON"
240253,way,581743412,45.4853986,-75.5084077,,327,Pintail Terrace,house,"327 Pintail terrace, Ottawa, ON","327 Pintail terrace, Ottawa, ON"
10076,way,350624093,45.24709,-75.5915478,,6406,Blossom Trail Drive,house,"6406 Blossom trail drive, Ottawa, ON","6406 Blossom trail drive, Ottawa, ON"
133388,way,475085712,45.3801583,-75.7515478,,722,Cole Avenue South,house,"722 Cole avenue south, Ottawa, ON","722 Cole avenue south, Ottawa, ON"
241140,way,582006928,45.4507792,-75.6353513,,293,Avro Circle,house,"293 Avro circle, Ottawa, ON","293 Avro circle, Ottawa, ON"
44531,way,470869767,45.2831144,-75.756251,,22,Ventnor Way,house,"22 Ventnor way, Ottawa, ON","22 Ventnor way, Ottawa, ON"
119851,way,474010425,45.3521397,-75.722951,,7,Bowhill Avenue,house,"7 Bowhill avenue, Ottawa, ON","7 Bowhill avenue, Ottawa, ON"
298256,way,801464011,45.3975224,-75.7581344,,225,Royal Avenue,house,"225 Royal avenue, Ottawa, ON","225 Royal avenue, Ottawa, ON"
105393,way,472844616,45.3519332,-75.7149844,,16,Scholars Court,house,"16 Scholars court, Ottawa, ON","16 Scholars court, Ottawa, ON"
181495,way,484384779,45.473834,-75.5355384,,1113,St. Jovite Ridge,house,"1113 St. jovite ridge, Ottawa, ON","1113 St. jovite ridge, Ottawa, ON"
290603,way,686132678,45.2696662,-75.8901594,,243,Shinny Avenue,house,"243 Shinny avenue, Ottawa, ON","243 Shinny avenue, Ottawa, ON"
40927,way,470678350,45.4525424,-75.4600908,,62,Luminescence Way,house,"62 Luminescence way, Ottawa, ON","62 Luminescence way, Ottawa, ON"
242907,way,582941568,45.3728928,-75.6195013,,77,Welsh Private,house,"77 Welsh private, Ottawa, ON","77 Welsh private, Ottawa, ON"
167069,way,483090142,45.3516176,-75.64962,,2641,Pimlico Crescent,house,"2641 Pimlico crescent, Ottawa, ON","2641 Pimlico crescent, Ottawa, ON"
234597,way,578149612,45.3932898,-75.6105033,,2314 D,Russell Road,house,"2314 D Russell road, Ottawa, ON","2314 D Russell road, Ottawa, ON"
217636,way,563080584,45.305341,-75.9367896,,552,Paine Avenue,house,"552 Paine avenue, Ottawa, ON","552 Paine avenue, Ottawa, ON"
105044,way,472844155,45.3519169,-75.7064551,,111,Homestead Street,house,"111 Homestead street, Ottawa, ON","111 Homestead street, Ottawa, ON"
40946,way,470678384,45.4583831,-75.4552483,,1869,Mickelberry Crescent,house,"1869 Mickelberry crescent, Ottawa, ON","1869 Mickelberry crescent, Ottawa, ON"
210169,way,557196873,45.2139009,-76.0178636,,46,Carlisle Circle,house,"46 Carlisle circle, Ottawa, ON","46 Carlisle circle, Ottawa, ON"
245455,way,583548873,45.3509727,-75.6502934,,2608,Pimlico Crescent,house,"2608 Pimlico crescent, Ottawa, ON","2608 Pimlico crescent, Ottawa, ON"
220001,way,564878523,45.2713437,-75.7812632,,164,Popplewell Crescent,house,"164 Popplewell crescent, Ottawa, ON","164 Popplewell crescent, Ottawa, ON"
191782,way,541589445,45.2732829,-75.7486139,,33,Bartley Crescent,house,"33 Bartley crescent, Ottawa, ON","33 Bartley crescent, Ottawa, ON"
15714,way,441865428,45.4020992,-75.7223405,,72,Fairmont Avenue,house,"72 Fairmont avenue, Ottawa, ON","72 Fairmont avenue, Ottawa, ON"
167111,way,483090238,45.3502614,-75.6484489,,2757,Pimlico Crescent,house,"2757 Pimlico crescent, Ottawa, ON","2757 Pimlico crescent, Ottawa, ON"
197926,way,546954204,45.3627599,-75.683834,,44,Walton Court,house,"44 Walton court, Ottawa, ON","44 Walton court, Ottawa, ON"
204382,way,547801439,45.3594917,-75.7133225,,14 B,Ashburn Drive,house,"14 B Ashburn drive, Ottawa, ON","14 B Ashburn drive, Ottawa, ON"
189011,way,486245638,45.2741958,-75.7541137,,58,Amherst Crescent,house,"58 Amherst crescent, Ottawa, ON","58 Amherst crescent, Ottawa, ON"
41171,way,470678889,45.457274,-75.4630905,,898,Balzac Lane,house,"898 Balzac lane, Ottawa, ON","898 Balzac lane, Ottawa, ON"
110451,way,473152707,45.316737,-75.8313962,,7,Tarquin Crescent,house,"7 Tarquin crescent, Ottawa, ON","7 Tarquin crescent, Ottawa, ON"
238343,way,580510256,45.4386146,-75.4936255,,333,Willow Aster Circle,house,"333 Willow aster circle, Ottawa, ON","333 Willow aster circle, Ottawa, ON"
235483,way,578580203,45.4370014,-75.6387977,,776,Borthwick Avenue,house,"776 Borthwick avenue, Ottawa, ON","776 Borthwick avenue, Ottawa, ON"
186200,way,484712080,45.4837173,-75.5106525,,318,Elderberry Terrace,house,"318 Elderberry terrace, Ottawa, ON","318 Elderberry terrace, Ottawa, ON"
238449,way,580529478,45.3674535,-75.6414957,,287,Macoun Circle,house,"287 Macoun circle, Ottawa, ON","287 Macoun circle, Ottawa, ON"
259882,way,607449891,45.4236135,-75.6768932,,281,Somerset Street East,house,"281 Somerset street east, Ottawa, ON","281 Somerset street east, Ottawa, ON"
220695,way,565632139,45.2881612,-75.7319891,,352,Sweetflag Street,house,"352 Sweetflag street, Ottawa, ON","352 Sweetflag street, Ottawa, ON"
19413,way,459926727,45.4521559,-75.6114503,,26,Wick Crescent,house,"26 Wick crescent, Ottawa, ON","26 Wick crescent, Ottawa, ON"
232937,way,576392942,45.3690569,-75.7067349,,938,Dynes Road,house,"938 Dynes road, Ottawa, ON","938 Dynes road, Ottawa, ON"
175281,way,483719988,45.4432037,-75.6248243,,48,Lafayette Private,house,"48 Lafayette private, Ottawa, ON","48 Lafayette private, Ottawa, ON"
119897,way,474010471,45.353019,-75.7264202,,19,Southview Crescent,house,"19 Southview crescent, Ottawa, ON","19 Southview crescent, Ottawa, ON"
142435,way,479507324,45.4034555,-75.6995317,,120,Renfrew Avenue,house,"120 Renfrew avenue, Ottawa, ON","120 Renfrew avenue, Ottawa, ON"
95214,way,472401377,45.3436858,-75.7408967,,76,Fieldrow Street,house,"76 Fieldrow street, Ottawa, ON","76 Fieldrow street, Ottawa, ON"
145573,way,479752213,45.4120543,-75.704735,,635,Somerset Street West,house,"635 Somerset street west, Ottawa, ON","635 Somerset street west, Ottawa, ON"
249344,way,585239346,45.4306206,-75.6367242,,4703,Caron Street,house,"4703 Caron street, Ottawa, ON","4703 Caron street, Ottawa, ON"
249828,way,585524916,45.424276,-75.6493405,,1099 A,Naughton Street,house,"1099 A Naughton street, Ottawa, ON","1099 A Naughton street, Ottawa, ON"
46327,way,471116972,45.4555226,-75.4736701,,2211,Esprit Drive,house,"2211 Esprit drive, Ottawa, ON","2211 Esprit drive, Ottawa, ON"
249522,way,585293635,45.4323508,-75.6362989,,952 A,Cummings Avenue,house,"952 A Cummings avenue, Ottawa, ON","952 A Cummings avenue, Ottawa, ON"
41687,way,470705025,45.4496645,-75.4799362,,74,Branthaven Street,house,"74 Branthaven street, Ottawa, ON","74 Branthaven street, Ottawa, ON"
19201,way,459472204,45.433306,-75.6844105,,362,Murray Street,house,"362 Murray street, Ottawa, ON","362 Murray street, Ottawa, ON"
154505,way,481610091,45.2706946,-75.8903327,,258,Shinny Avenue,house,"258 Shinny avenue, Ottawa, ON","258 Shinny avenue, Ottawa, ON"
80894,way,472233590,45.333367,-75.7643092,,34,Colfax Street,house,"34 Colfax street, Ottawa, ON","34 Colfax street, Ottawa, ON"
246521,way,583840228,45.4257953,-75.6547783,,255,King George Street,house,"255 King george street, Ottawa, ON","255 King george street, Ottawa, ON"
132905,way,475076309,45.3847641,-75.7538022,,421,Avondale Avenue,house,"421 Avondale avenue, Ottawa, ON","421 Avondale avenue, Ottawa, ON"
45116,way,470870436,45.2778671,-75.7588757,,40,Tedwyn Drive,house,"40 Tedwyn drive, Ottawa, ON","40 Tedwyn drive, Ottawa, ON"
116758,way,473332275,45.3503836,-75.7969287,,45,Splinter Crescent,house,"45 Splinter crescent, Ottawa, ON","45 Splinter crescent, Ottawa, ON"
263785,way,613970349,45.2792438,-75.6895028,,4298,Owl Valley Drive,house,"4298 Owl valley drive, Ottawa, ON","4298 Owl valley drive, Ottawa, ON"
134018,way,475114894,45.387652,-75.7435469,,194,Westhaven Crescent,house,"194 Westhaven crescent, Ottawa, ON","194 Westhaven crescent, Ottawa, ON"
271638,way,615556087,45.3714265,-75.7717356,,320,Woodroffe Avenue,house,"320 Woodroffe avenue, Ottawa, ON","320 Woodroffe avenue, Ottawa, ON"
238489,way,580529572,45.3678395,-75.6424278,,226,Macoun Circle,house,"226 Macoun circle, Ottawa, ON","226 Macoun circle, Ottawa, ON"
242973,way,583034655,45.3866151,-75.6658195,,1365,Kilborn Avenue,house,"1365 Kilborn avenue, Ottawa, ON","1365 Kilborn avenue, Ottawa, ON"
234548,way,577918677,45.3690814,-75.6344653,,15,Inverkip Avenue,house,"15 Inverkip avenue, Ottawa, ON","15 Inverkip avenue, Ottawa, ON"
202443,way,547548956,45.3512585,-75.7720716,,1315,Highgate Road,house,"1315 Highgate road, Ottawa, ON","1315 Highgate road, Ottawa, ON"
168732,way,483215465,45.3577685,-75.6416076,,136,Solera Circle,house,"136 Solera circle, Ottawa, ON","136 Solera circle, Ottawa, ON"
247362,way,584203025,45.4448517,-75.6045133,,912 B,Elmsmere Road,house,"912 B Elmsmere road, Ottawa, ON","912 B Elmsmere road, Ottawa, ON"
242488,way,582688659,45.3759385,-75.735772,,1015,Cavan Street,house,"1015 Cavan street, Ottawa, ON","1015 Cavan street, Ottawa, ON"
205851,way,548876775,45.3679565,-75.7072527,,966,Eiffel Avenue,house,"966 Eiffel avenue, Ottawa, ON","966 Eiffel avenue, Ottawa, ON"
41364,way,470679219,45.4579387,-75.4593026,,1016,Clubmoss Avenue,house,"1016 Clubmoss avenue, Ottawa, ON","1016 Clubmoss avenue, Ottawa, ON"
5589,way,255269583,45.4215773,-75.673454,,650,Chapel Street,house,"650 Chapel street, Ottawa, ON","650 Chapel street, Ottawa, ON"
19710,way,460240998,45.404027,-75.7031828,,410,Cambridge Street South,house,"410 Cambridge street south, Ottawa, ON","410 Cambridge street south, Ottawa, ON"
249323,way,585239325,45.4305953,-75.6373453,,4506,Dora Crescent,house,"4506 Dora crescent, Ottawa, ON","4506 Dora crescent, Ottawa, ON"
235361,way,578580000,45.4367448,-75.6377164,,792,Cummings Avenue,house,"792 Cummings avenue, Ottawa, ON","792 Cummings avenue, Ottawa, ON"
199008,way,547162205,45.352633,-75.7267657,,10,Southview Crescent,house,"10 Southview crescent, Ottawa, ON","10 Southview crescent, Ottawa, ON"
19890,way,460434739,45.4440907,-75.643272,,532,Brittany Drive,house,"532 Brittany drive, Ottawa, ON","532 Brittany drive, Ottawa, ON"
74814,way,472168855,45.3337343,-75.7370013,,91,Downsview Crescent,house,"91 Downsview crescent, Ottawa, ON","91 Downsview crescent, Ottawa, ON"
24476,way,469941466,45.3472744,-76.0009703,,117,Margaret Anne Drive,house,"117 Margaret anne drive, Ottawa, ON","117 Margaret anne drive, Ottawa, ON"
12580,way,385064882,45.3991221,-75.7264756,,16,Foster Street,house,"16 Foster street, Ottawa, ON","16 Foster street, Ottawa, ON"
245505,way,583548923,45.3514789,-75.6504395,,2617,Pimlico Crescent,house,"2617 Pimlico crescent, Ottawa, ON","2617 Pimlico crescent, Ottawa, ON"
243000,way,583050418,45.3639227,-75.6422456,,207,Rosebud Private,house,"207 Rosebud private, Ottawa, ON","207 Rosebud private, Ottawa, ON"
248652,way,584998397,45.4140909,-75.6935919,,458,Lewis Street,house,"458 Lewis street, Ottawa, ON","458 Lewis street, Ottawa, ON"
74861,way,472169133,45.2745814,-75.6870681,,755,Hot Springs Way,house,"755 Hot springs way, Ottawa, ON","755 Hot springs way, Ottawa, ON"
234258,way,577897074,45.3573946,-75.643295,,34,Royal Oak Court,house,"34 Royal oak court, Ottawa, ON","34 Royal oak court, Ottawa, ON"
124294,way,474250931,45.3924412,-75.6698781,,2027,Leslie Avenue,house,"2027 Leslie avenue, Ottawa, ON","2027 Leslie avenue, Ottawa, ON"
157965,way,482454373,45.3726927,-75.6191246,,995,Karsh Drive,house,"995 Karsh drive, Ottawa, ON","995 Karsh drive, Ottawa, ON"
184687,way,484564346,45.4829607,-75.5319249,,1036,Avignon Court,house,"1036 Avignon court, Ottawa, ON","1036 Avignon court, Ottawa, ON"
184726,way,484564385,45.4822941,-75.5315684,,1005,Avignon Court,house,"1005 Avignon court, Ottawa, ON","1005 Avignon court, Ottawa, ON"
247592,way,584215422,45.442197,-75.5986133,,1912 C,Elmridge Drive,house,"1912 C Elmridge drive, Ottawa, ON","1912 C Elmridge drive, Ottawa, ON"
8153,way,307631725,45.4686847,-75.4949932,,451,Phoenix Crescent,house,"451 Phoenix crescent, Ottawa, ON","451 Phoenix crescent, Ottawa, ON"
130637,way,474837310,45.3743729,-75.7564098,,843,Maitland Avenue,house,"843 Maitland avenue, Ottawa, ON","843 Maitland avenue, Ottawa, ON"
225672,way,569434563,45.3515423,-75.7279475,,58 A,Chesterton Drive,house,"58 A Chesterton drive, Ottawa, ON","58 A Chesterton drive, Ottawa, ON"
46197,way,471116823,45.4551826,-75.4719314,,815,Galleria Circle,house,"815 Galleria circle, Ottawa, ON","815 Galleria circle, Ottawa, ON"
202681,way,547558868,45.3718206,-75.7797417,,239,Hartleigh Avenue,house,"239 Hartleigh avenue, Ottawa, ON","239 Hartleigh avenue, Ottawa, ON"
7183,way,287732087,45.4052538,-75.6572352,,204,Knox Crescent,house,"204 Knox crescent, Ottawa, ON","204 Knox crescent, Ottawa, ON"
6377,way,261872948,45.3942005,-75.7278358,,121,Kenilworth Street,house,"121 Kenilworth street, Ottawa, ON","121 Kenilworth street, Ottawa, ON"
46454,way,471117104,45.4584835,-75.4718557,,759,Schubert Circle,house,"759 Schubert circle, Ottawa, ON","759 Schubert circle, Ottawa, ON"
235690,way,578629652,45.4282771,-75.6237916,,1288,Perez Crescent,house,"1288 Perez crescent, Ottawa, ON","1288 Perez crescent, Ottawa, ON"
245523,way,583548941,45.3520829,-75.6488951,,2675,Pimlico Crescent,house,"2675 Pimlico crescent, Ottawa, ON","2675 Pimlico crescent, Ottawa, ON"
116348,way,473242818,45.2741515,-75.6858259,,784,Hot Springs Way,house,"784 Hot springs way, Ottawa, ON","784 Hot springs way, Ottawa, ON"
220429,way,565474509,45.3987969,-75.7503091,,73,Metropole Private,house,"73 Metropole private, Ottawa, ON","73 Metropole private, Ottawa, ON"
233699,way,577625148,45.358523,-75.645035,,410,Marlin Private,house,"410 Marlin private, Ottawa, ON","410 Marlin private, Ottawa, ON"
266780,way,614356593,45.2940373,-75.8890859,,29,Winchester Drive,house,"29 Winchester drive, Ottawa, ON","29 Winchester drive, Ottawa, ON"
46487,way,471117143,45.4598949,-75.469605,,2224,Clermont Crescent,house,"2224 Clermont crescent, Ottawa, ON","2224 Clermont crescent, Ottawa, ON"
295023,way,736908481,45.2828606,-75.9208128,,823,Indica Street,house,"823 Indica street, Ottawa, ON","823 Indica street, Ottawa, ON"
186359,way,484712306,45.4841073,-75.5148094,,919,Borland Drive,house,"919 Borland drive, Ottawa, ON","919 Borland drive, Ottawa, ON"
249838,way,585524926,45.4241625,-75.6489119,,383 A,Presland Road,house,"383 A Presland road, Ottawa, ON","383 A Presland road, Ottawa, ON"
204266,way,547801148,45.3663344,-75.7077341,,1441,Claymor Avenue,house,"1441 Claymor avenue, Ottawa, ON","1441 Claymor avenue, Ottawa, ON"
105096,way,472844212,45.3397298,-75.7021916,,66,Rideau Heights Drive,house,"66 Rideau heights drive, Ottawa, ON","66 Rideau heights drive, Ottawa, ON"
116834,way,473332356,45.3479916,-75.7987837,,1070,Barwell Avenue,house,"1070 Barwell avenue, Ottawa, ON","1070 Barwell avenue, Ottawa, ON"
246722,way,583840625,45.42384,-75.6729341,,162,Goulburn Avenue,house,"162 Goulburn avenue, Ottawa, ON","162 Goulburn avenue, Ottawa, ON"
263425,way,613172642,45.2888688,-75.7428739,,44,Boulder Way,house,"44 Boulder way, Ottawa, ON","44 Boulder way, Ottawa, ON"
116826,way,473332345,45.3475639,-75.7990628,,1077,Alenmede Crescent,house,"1077 Alenmede crescent, Ottawa, ON","1077 Alenmede crescent, Ottawa, ON"
288157,way,634041370,45.1947169,-75.9724302,,7715,Flewellyn Road,house,"7715 Flewellyn road, Ottawa, ON","7715 Flewellyn road, Ottawa, ON"
294590,way,699943473,45.3907335,-75.7578965,,401,Berkley Avenue,house,"401 Berkley avenue, Ottawa, ON","401 Berkley avenue, Ottawa, ON"
236056,way,578687166,45.4182599,-75.6071158,,1665,Fine Crescent,house,"1665 Fine crescent, Ottawa, ON","1665 Fine crescent, Ottawa, ON"
109083,way,473084554,45.3465763,-75.675047,,3452,Paul Anka Drive,house,"3452 Paul anka drive, Ottawa, ON","3452 Paul anka drive, Ottawa, ON"
191401,way,537564487,45.2761728,-75.9314811,,210,Horseshoe Crescent,house,"210 Horseshoe crescent, Ottawa, ON","210 Horseshoe crescent, Ottawa, ON"
41204,way,470678942,45.4575523,-75.4614321,,2186,Nantes Street,house,"2186 Nantes street, Ottawa, ON","2186 Nantes street, Ottawa, ON"
81092,way,472233799,45.3330082,-75.762998,,17,Colfax Street,house,"17 Colfax street, Ottawa, ON","17 Colfax street, Ottawa, ON"
176170,way,483739534,45.4355599,-75.6392383,,808,Trojan Avenue,house,"808 Trojan avenue, Ottawa, ON","808 Trojan avenue, Ottawa, ON"
5537,way,255225544,45.4271235,-75.6781268,,324,Laurier Avenue East,house,"324 Laurier avenue east, Ottawa, ON","324 Laurier avenue east, Ottawa, ON"
17612,way,447222198,45.3358074,-75.6705404,,1,Tylee Private,house,"1 Tylee private, Ottawa, ON","1 Tylee private, Ottawa, ON"
198668,way,547147459,45.3497901,-75.6507591,,2595,Crosscut Terrace,house,"2595 Crosscut terrace, Ottawa, ON","2595 Crosscut terrace, Ottawa, ON"
24457,way,469941447,45.3493929,-75.9901892,,11,Weldale Drive,house,"11 Weldale drive, Ottawa, ON","11 Weldale drive, Ottawa, ON"
238613,way,580571067,45.4971328,-75.4688362,,707,Cartographe Street,house,"707 Cartographe street, Ottawa, ON","707 Cartographe street, Ottawa, ON"
84230,way,472253171,45.3310547,-75.7756179,,26,Bentworth Crescent,house,"26 Bentworth crescent, Ottawa, ON","26 Bentworth crescent, Ottawa, ON"
249751,way,585524836,45.4223512,-75.6566742,,27,Sand Cherry Private,house,"27 Sand cherry private, Ottawa, ON","27 Sand cherry private, Ottawa, ON"
220008,way,564878531,45.2697966,-75.7794771,,106,Popplewell Crescent,house,"106 Popplewell crescent, Ottawa, ON","106 Popplewell crescent, Ottawa, ON"
134007,way,475114882,45.389122,-75.7476809,,522 B,Tweedsmuir Avenue,house,"522 B Tweedsmuir avenue, Ottawa, ON","522 B Tweedsmuir avenue, Ottawa, ON"
6502,way,262308756,45.395392,-75.7277237,,346,Sherwood Drive,house,"346 Sherwood drive, Ottawa, ON","346 Sherwood drive, Ottawa, ON"
63557,way,471676449,45.3332328,-75.7399058,,29,Benlea Drive,house,"29 Benlea drive, Ottawa, ON","29 Benlea drive, Ottawa, ON"
233886,way,577875890,45.3639198,-75.638147,,115,Somero Private,house,"115 Somero private, Ottawa, ON","115 Somero private, Ottawa, ON"
285081,way,626431568,45.4331007,-75.6860102,,335,Murray Street,house,"335 Murray street, Ottawa, ON","335 Murray street, Ottawa, ON"
172229,way,483449769,45.4610154,-75.5980667,,598,Eastvale Drive,house,"598 Eastvale drive, Ottawa, ON","598 Eastvale drive, Ottawa, ON"
266090,way,614352118,45.2828193,-75.8693897,,656,Moorpark Avenue,house,"656 Moorpark avenue, Ottawa, ON","656 Moorpark avenue, Ottawa, ON"
243056,way,583050492,45.364761,-75.6429698,,245,White Clover Private,house,"245 White clover private, Ottawa, ON","245 White clover private, Ottawa, ON"
20841,way,469687880,45.3526389,-76.037939,,325,Seagram Heights,house,"325 Seagram heights, Ottawa, ON","325 Seagram heights, Ottawa, ON"
286548,way,630997324,45.4052402,-75.7225117,,9,Irving Avenue,house,"9 Irving avenue, Ottawa, ON","9 Irving avenue, Ottawa, ON"
46458,way,471117108,45.4584688,-75.4694083,,673,Aquaview Drive,house,"673 Aquaview drive, Ottawa, ON","673 Aquaview drive, Ottawa, ON"
134449,way,475293290,45.374569,-75.7657168,,291,Iroquois Road,house,"291 Iroquois road, Ottawa, ON","291 Iroquois road, Ottawa, ON"
233775,way,577850798,45.358545,-75.6415404,,88,Patola Private,house,"88 Patola private, Ottawa, ON","88 Patola private, Ottawa, ON"
266840,way,614356653,45.2915079,-75.8746906,,59,Shouldice Crescent,house,"59 Shouldice crescent, Ottawa, ON","59 Shouldice crescent, Ottawa, ON"
24467,way,469941457,45.3468195,-76.0021205,,113,Margaret Anne Drive,house,"113 Margaret anne drive, Ottawa, ON","113 Margaret anne drive, Ottawa, ON"
83692,way,472250397,45.3250673,-75.7936145,,65,Hobart Crescent,house,"65 Hobart crescent, Ottawa, ON","65 Hobart crescent, Ottawa, ON"
291169,way,686149841,45.2827153,-75.9197316,,509,Warmstone Drive,house,"509 Warmstone drive, Ottawa, ON","509 Warmstone drive, Ottawa, ON"
193578,way,546225906,45.346683,-75.646381,,2702,Farriers Lane,house,"2702 Farriers lane, Ottawa, ON","2702 Farriers lane, Ottawa, ON"
244217,way,583376803,45.3506337,-75.6391201,,1466,Mattagami Street,house,"1466 Mattagami street, Ottawa, ON","1466 Mattagami street, Ottawa, ON"
100662,way,472631239,45.2802454,-75.8566106,,135,Granite Court,house,"135 Granite court, Ottawa, ON","135 Granite court, Ottawa, ON"
196299,way,546734820,45.3340605,-75.7366901,,66,Downsview Crescent,house,"66 Downsview crescent, Ottawa, ON","66 Downsview crescent, Ottawa, ON"
161533,way,482719803,45.3656748,-75.7378628,,12,Grammercy Park,house,"12 Grammercy park, Ottawa, ON","12 Grammercy park, Ottawa, ON"
191223,way,535397868,45.4520287,-75.5211961,,1822,Chaîne Court,house,"1822 Chaîne court, Ottawa, ON","1822 Chaîne court, Ottawa, ON"
110205,way,473152394,45.3174654,-75.8416963,,9,Terrace Drive,house,"9 Terrace drive, Ottawa, ON","9 Terrace drive, Ottawa, ON"
8219,way,307655244,45.4712219,-75.4984869,,1527,Prestwick Drive,house,"1527 Prestwick drive, Ottawa, ON","1527 Prestwick drive, Ottawa, ON"
243123,way,583066679,45.3595062,-75.6469916,,3324,Albion Road South,house,"3324 Albion road south, Ottawa, ON","3324 Albion road south, Ottawa, ON"
162870,way,482916648,45.3642832,-75.68584,,14,Bayside Private,house,"14 Bayside private, Ottawa, ON","14 Bayside private, Ottawa, ON"
242511,way,582714247,45.3681478,-75.613173,,51,Bradley Cole Private,house,"51 Bradley cole private, Ottawa, ON","51 Bradley cole private, Ottawa, ON"
114427,way,473210045,45.3487922,-75.7269164,,45,Keewatin Crescent,house,"45 Keewatin crescent, Ottawa, ON","45 Keewatin crescent, Ottawa, ON"
240335,way,581743507,45.4846091,-75.515035,,928,Borland Drive,house,"928 Borland drive, Ottawa, ON","928 Borland drive, Ottawa, ON"
105164,way,472844347,45.3475762,-75.7008785,,1977,Prince Of Wales Drive,house,"1977 Prince of wales drive, Ottawa, ON","1977 Prince of wales drive, Ottawa, ON"
6238,way,259537104,45.3936268,-75.7267886,,381,Hinton Avenue South,house,"381 Hinton avenue south, Ottawa, ON","381 Hinton avenue south, Ottawa, ON"
245687,way,583598675,45.4055184,-75.6350508,,1639,Pullen Avenue,house,"1639 Pullen avenue, Ottawa, ON","1639 Pullen avenue, Ottawa, ON"
8109,way,307631673,45.4715674,-75.4961366,,382,Phoenix Crescent,house,"382 Phoenix crescent, Ottawa, ON","382 Phoenix crescent, Ottawa, ON"
221121,way,566792899,45.4310898,-75.5609326,,2096,Orient Park Drive,house,"2096 Orient park drive, Ottawa, ON","2096 Orient park drive, Ottawa, ON"
15387,way,441853484,45.4019282,-75.7253244,,28,Sherbrooke Avenue,house,"28 Sherbrooke avenue, Ottawa, ON","28 Sherbrooke avenue, Ottawa, ON"
19216,way,459478481,45.4535141,-75.6173301,,18,Swans Way,house,"18 Swans way, Ottawa, ON","18 Swans way, Ottawa, ON"
12766,way,386426397,45.3971678,-75.7392117,,387,Mayfair Avenue,house,"387 Mayfair avenue, Ottawa, ON","387 Mayfair avenue, Ottawa, ON"
168404,way,483215112,45.3578549,-75.6437089,,458,Marlin Private,house,"458 Marlin private, Ottawa, ON","458 Marlin private, Ottawa, ON"
149528,way,479921954,45.3786191,-75.7776466,,51,Pooler Avenue,house,"51 Pooler avenue, Ottawa, ON","51 Pooler avenue, Ottawa, ON"
19255,way,459662620,45.4133603,-75.6984524,,466,MacLaren Street,house,"466 Maclaren street, Ottawa, ON","466 Maclaren street, Ottawa, ON"
18776,way,458188768,45.4328173,-75.6938662,,136,Bruyère Street,house,"136 Bruyère street, Ottawa, ON","136 Bruyère street, Ottawa, ON"
225537,way,569397583,45.3664375,-75.6795225,,2730,Colman Street,house,"2730 Colman street, Ottawa, ON","2730 Colman street, Ottawa, ON"
220024,way,564878547,45.2713973,-75.7820766,,120,Hawkshaw Crescent,house,"120 Hawkshaw crescent, Ottawa, ON","120 Hawkshaw crescent, Ottawa, ON"
63840,way,471676904,45.3313901,-75.7435677,,93,Benlea Drive,house,"93 Benlea drive, Ottawa, ON","93 Benlea drive, Ottawa, ON"
246347,way,583839848,45.4247813,-75.6555996,,238,Queen Mary Street,house,"238 Queen mary street, Ottawa, ON","238 Queen mary street, Ottawa, ON"
230913,way,574618159,45.2834292,-75.8821081,,91,Castle Glen Crescent,house,"91 Castle glen crescent, Ottawa, ON","91 Castle glen crescent, Ottawa, ON"
235723,way,578629704,45.4281137,-75.6251918,,1345,Perez Crescent,house,"1345 Perez crescent, Ottawa, ON","1345 Perez crescent, Ottawa, ON"
127121,way,474459046,45.4044262,-75.6874896,,101,Second Avenue,house,"101 Second avenue, Ottawa, ON","101 Second avenue, Ottawa, ON"
237317,way,579951197,45.3137547,-75.5976803,,558,Silverbell Crescent,house,"558 Silverbell crescent, Ottawa, ON","558 Silverbell crescent, Ottawa, ON"
248122,way,584500217,45.4098676,-75.6838519,,1,Patterson Avenue,house,"1 Patterson avenue, Ottawa, ON","1 Patterson avenue, Ottawa, ON"
242316,way,582422744,45.3806077,-75.6727911,,1113,Aldéa Avenue,house,"1113 Aldéa avenue, Ottawa, ON","1113 Aldéa avenue, Ottawa, ON"
224394,way,568608863,45.369131,-75.6144263,,1486,Blohm Drive,house,"1486 Blohm drive, Ottawa, ON","1486 Blohm drive, Ottawa, ON"
80870,way,472233566,45.3333548,-75.7628003,,36,Bertona Street,house,"36 Bertona street, Ottawa, ON","36 Bertona street, Ottawa, ON"
242849,way,582941510,45.3726553,-75.6191907,,993,Karsh Drive,house,"993 Karsh drive, Ottawa, ON","993 Karsh drive, Ottawa, ON"
236069,way,578694436,45.4260553,-75.6120227,,1321,Marigold Crescent,house,"1321 Marigold crescent, Ottawa, ON","1321 Marigold crescent, Ottawa, ON"
87192,way,472269928,45.337539,-75.7848461,,12,Meadowbank Drive,house,"12 Meadowbank drive, Ottawa, ON","12 Meadowbank drive, Ottawa, ON"
207464,way,553157042,45.3313582,-76.2043847,,3118,Upper Dwyer Hill Road,house,"3118 Upper dwyer hill road, Ottawa, ON","3118 Upper dwyer hill road, Ottawa, ON"
138852,way,478859511,45.3926219,-75.6942086,,42,Fulton Avenue,house,"42 Fulton avenue, Ottawa, ON","42 Fulton avenue, Ottawa, ON"
199047,way,547162244,45.3545903,-75.7264617,,23,Mulvagh Avenue,house,"23 Mulvagh avenue, Ottawa, ON","23 Mulvagh avenue, Ottawa, ON"
264468,way,613971169,45.2781227,-75.6953944,,286,Tewsley Drive,house,"286 Tewsley drive, Ottawa, ON","286 Tewsley drive, Ottawa, ON"
37343,way,470443013,45.2745255,-75.7570028,,46,Dolan Drive,house,"46 Dolan drive, Ottawa, ON","46 Dolan drive, Ottawa, ON"
198862,way,547157438,45.3637557,-75.7470304,,1228,Maitland Avenue,house,"1228 Maitland avenue, Ottawa, ON","1228 Maitland avenue, Ottawa, ON"
2290,way,155143997,45.3969849,-75.7487106,,315,Clifton Road,house,"315 Clifton road, Ottawa, ON","315 Clifton road, Ottawa, ON"
222499,way,567532456,45.3433963,-75.6879031,,111,Gillespie Crescent,house,"111 Gillespie crescent, Ottawa, ON","111 Gillespie crescent, Ottawa, ON"
287563,way,632562218,45.4228111,-75.6786949,,440,Nelson Street,house,"440 Nelson street, Ottawa, ON","440 Nelson street, Ottawa, ON"
191380,way,537564466,45.275656,-75.9293975,,334,Horseshoe Crescent,house,"334 Horseshoe crescent, Ottawa, ON","334 Horseshoe crescent, Ottawa, ON"
160440,way,482662235,45.3416905,-75.6718469,,320,Wisteria Crescent,house,"320 Wisteria crescent, Ottawa, ON","320 Wisteria crescent, Ottawa, ON"
224452,way,568609038,45.3711038,-75.622201,,45,Wallack Private,house,"45 Wallack private, Ottawa, ON","45 Wallack private, Ottawa, ON"
18978,way,459070449,45.4347205,-75.6917052,,262,Cathcart Street,house,"262 Cathcart street, Ottawa, ON","262 Cathcart street, Ottawa, ON"
243599,way,583085133,45.4403754,-75.6024271,,1803,Cloverlawn Crescent,house,"1803 Cloverlawn crescent, Ottawa, ON","1803 Cloverlawn crescent, Ottawa, ON"
197918,way,546954194,45.3649768,-75.6815925,,2759,Flannery Drive,house,"2759 Flannery drive, Ottawa, ON","2759 Flannery drive, Ottawa, ON"
266827,way,614356640,45.294248,-75.884513,,81,Castlefrank Road,house,"81 Castlefrank road, Ottawa, ON","81 Castlefrank road, Ottawa, ON"
250355,way,586069859,45.3936504,-75.7599005,,429,Lochaber Avenue,house,"429 Lochaber avenue, Ottawa, ON","429 Lochaber avenue, Ottawa, ON"
204689,way,548036845,45.3359077,-75.6699991,,70,Niverville Private,house,"70 Niverville private, Ottawa, ON","70 Niverville private, Ottawa, ON"
46237,way,471116868,45.456212,-75.4715361,,57,Bluebell Street,house,"57 Bluebell street, Ottawa, ON","57 Bluebell street, Ottawa, ON"
197894,way,546954170,45.3650043,-75.681277,,48,Sandhurst Court,house,"48 Sandhurst court, Ottawa, ON","48 Sandhurst court, Ottawa, ON"
285187,way,626449055,45.4110308,-75.6814135,,245 D,Echo Drive,house,"245 D Echo drive, Ottawa, ON","245 D Echo drive, Ottawa, ON"
198868,way,547157444,45.3634635,-75.7451881,,1262,Maitland Avenue,house,"1262 Maitland avenue, Ottawa, ON","1262 Maitland avenue, Ottawa, ON"
206019,way,549075537,45.3926962,-75.7331553,,141,Clarendon Avenue,house,"141 Clarendon avenue, Ottawa, ON","141 Clarendon avenue, Ottawa, ON"
20069,way,465720762,45.4278552,-75.6824279,,155,Stewart Street,house,"155 Stewart street, Ottawa, ON","155 Stewart street, Ottawa, ON"
280546,way,619271517,45.4339916,-75.6943442,,181,Cathcart Street,house,"181 Cathcart street, Ottawa, ON","181 Cathcart street, Ottawa, ON"
220034,way,564878558,45.2716834,-75.781366,,100,Hawkshaw Crescent,house,"100 Hawkshaw crescent, Ottawa, ON","100 Hawkshaw crescent, Ottawa, ON"
169463,way,483258767,45.3600566,-75.6537669,,3255,Southgate Road,house,"3255 Southgate road, Ottawa, ON","3255 Southgate road, Ottawa, ON"
250349,way,586069853,45.3916099,-75.7572778,,385,Roosevelt Avenue,house,"385 Roosevelt avenue, Ottawa, ON","385 Roosevelt avenue, Ottawa, ON"
183888,way,484531104,45.4560444,-75.5189394,,1752,Bromont Way,house,"1752 Bromont way, Ottawa, ON","1752 Bromont way, Ottawa, ON"
2282,way,155041652,45.3977123,-75.7443289,,332,Island Park Drive,house,"332 Island park drive, Ottawa, ON","332 Island park drive, Ottawa, ON"
247310,way,584078136,45.4328397,-75.6908457,,217,Guigues Avenue,house,"217 Guigues avenue, Ottawa, ON","217 Guigues avenue, Ottawa, ON"
24661,way,469944069,45.3536713,-75.9914702,,1825,March Road,house,"1825 March road, Ottawa, ON","1825 March road, Ottawa, ON"
41807,way,470705160,45.4503213,-75.4777845,,100,Branthaven Street,house,"100 Branthaven street, Ottawa, ON","100 Branthaven street, Ottawa, ON"
191225,way,535397870,45.4526797,-75.522195,,1843,Chaîne Court,house,"1843 Chaîne court, Ottawa, ON","1843 Chaîne court, Ottawa, ON"
19184,way,459472187,45.4332121,-75.683991,,378,Murray Street,house,"378 Murray street, Ottawa, ON","378 Murray street, Ottawa, ON"
195535,way,546645113,45.3165708,-75.838398,,46,Westcliffe Road,house,"46 Westcliffe road, Ottawa, ON","46 Westcliffe road, Ottawa, ON"
271378,way,615419382,45.3947995,-75.6826125,,267,Sunnyside Avenue,house,"267 Sunnyside avenue, Ottawa, ON","267 Sunnyside avenue, Ottawa, ON"
195987,way,546731748,45.3297584,-75.7742329,,52,Winlock Crescent,house,"52 Winlock crescent, Ottawa, ON","52 Winlock crescent, Ottawa, ON"
245360,way,583532399,45.3482203,-75.6306446,,3092,Armada Avenue,house,"3092 Armada avenue, Ottawa, ON","3092 Armada avenue, Ottawa, ON"
134462,way,475293311,45.3720683,-75.7720866,,302,Woodroffe Avenue,house,"302 Woodroffe avenue, Ottawa, ON","302 Woodroffe avenue, Ottawa, ON"
114658,way,473220138,45.4428161,-75.6032705,,1848,Elmridge Drive,house,"1848 Elmridge drive, Ottawa, ON","1848 Elmridge drive, Ottawa, ON"
199541,way,547166935,45.3516691,-75.8334157,,1 B,Crystal Beach Drive,house,"1 B Crystal beach drive, Ottawa, ON","1 B Crystal beach drive, Ottawa, ON"
101148,way,472638937,45.3236785,-75.6003555,,162,Flat Sedge Crescent,house,"162 Flat sedge crescent, Ottawa, ON","162 Flat sedge crescent, Ottawa, ON"
41781,way,470705131,45.4521745,-75.4857317,,142,Montargis Circle,house,"142 Montargis circle, Ottawa, ON","142 Montargis circle, Ottawa, ON"
191309,way,537564395,45.2767477,-75.9269973,,171,Mojave Crescent,house,"171 Mojave crescent, Ottawa, ON","171 Mojave crescent, Ottawa, ON"
198840,way,547157407,45.3669692,-75.7426395,,1163,Clyde Avenue,house,"1163 Clyde avenue, Ottawa, ON","1163 Clyde avenue, Ottawa, ON"
197219,way,546744063,45.3368702,-75.7852077,,17,Higgins Road,house,"17 Higgins road, Ottawa, ON","17 Higgins road, Ottawa, ON"
230920,way,574646649,45.1274298,-75.6382326,,7086,Rideau Valley Drive South,house,"7086 Rideau valley drive south, Ottawa, ON","7086 Rideau valley drive south, Ottawa, ON"
288727,way,639257996,45.3209474,-76.1825826,,3889,Panmure Road,house,"3889 Panmure road, Ottawa, ON","3889 Panmure road, Ottawa, ON"
189017,way,486245644,45.2835367,-75.7548728,,5,Ventnor Way,house,"5 Ventnor way, Ottawa, ON","5 Ventnor way, Ottawa, ON"
58186,way,471319675,45.2915853,-75.7407004,,28,Sutcliffe Terrace,house,"28 Sutcliffe terrace, Ottawa, ON","28 Sutcliffe terrace, Ottawa, ON"
248502,way,584818057,45.4146127,-75.7020983,,480,Lisgar Street,house,"480 Lisgar street, Ottawa, ON","480 Lisgar street, Ottawa, ON"
10125,way,351688270,45.3210009,-75.6932127,,15,Mary Drive,house,"15 Mary drive, Ottawa, ON","15 Mary drive, Ottawa, ON"
289030,way,648975707,45.5383847,-75.289109,,1115,St. Jacques Street,house,"1115 St. jacques street, Ottawa, ON","1115 St. jacques street, Ottawa, ON"
117255,way,473470396,45.3458874,-75.9019066,,46,Marsh Sparrow Private,house,"46 Marsh sparrow private, Ottawa, ON","46 Marsh sparrow private, Ottawa, ON"
162511,way,482836849,45.3455675,-75.6387218,,3784,Albion Road,house,"3784 Albion road, Ottawa, ON","3784 Albion road, Ottawa, ON"
157404,way,482449971,45.3697185,-75.6168553,,81,Ted Grant Private,house,"81 Ted grant private, Ottawa, ON","81 Ted grant private, Ottawa, ON"
63669,way,471676573,45.3332241,-75.7492417,,95,Dalehurst Drive,house,"95 Dalehurst drive, Ottawa, ON","95 Dalehurst drive, Ottawa, ON"
195499,way,546645058,45.3183063,-75.8372823,,7,Cymbeline Drive,house,"7 Cymbeline drive, Ottawa, ON","7 Cymbeline drive, Ottawa, ON"
212884,way,558677557,45.4791478,-75.523057,,6911,Du Bois Avenue,house,"6911 Du bois avenue, Ottawa, ON","6911 Du bois avenue, Ottawa, ON"
217628,way,563080576,45.3059236,-75.9362275,,574,Paine Avenue,house,"574 Paine avenue, Ottawa, ON","574 Paine avenue, Ottawa, ON"
247451,way,584206666,45.4442179,-75.6003273,,909 G,Elmsmere Road,house,"909 G Elmsmere road, Ottawa, ON","909 G Elmsmere road, Ottawa, ON"
204892,way,548047144,45.3923025,-75.7577117,,363,Roosevelt Avenue,house,"363 Roosevelt avenue, Ottawa, ON","363 Roosevelt avenue, Ottawa, ON"
129895,way,474719973,45.3573588,-75.7815127,,2528,Severn Avenue,house,"2528 Severn avenue, Ottawa, ON","2528 Severn avenue, Ottawa, ON"
204761,way,548047008,45.3932915,-75.7555265,,351 B,Whitby Avenue,house,"351 B Whitby avenue, Ottawa, ON","351 B Whitby avenue, Ottawa, ON"
271065,way,615295544,45.3799838,-75.6758299,,1050,Aldéa Avenue,house,"1050 Aldéa avenue, Ottawa, ON","1050 Aldéa avenue, Ottawa, ON"
110447,way,473152703,45.3177622,-75.8389235,,28,Oberon Street,house,"28 Oberon street, Ottawa, ON","28 Oberon street, Ottawa, ON"
160475,way,482662298,45.3438433,-75.6699041,,38,Erin Crescent,house,"38 Erin crescent, Ottawa, ON","38 Erin crescent, Ottawa, ON"
286050,way,628364472,45.4319508,-75.6867039,,287,Clarence Street,house,"287 Clarence street, Ottawa, ON","287 Clarence street, Ottawa, ON"
18285,way,448151067,45.3808213,-75.6392694,,1803,Heron Road,house,"1803 Heron road, Ottawa, ON","1803 Heron road, Ottawa, ON"
266078,way,614352106,45.281925,-75.871556,,607,Moorpark Avenue,house,"607 Moorpark avenue, Ottawa, ON","607 Moorpark avenue, Ottawa, ON"
187547,way,484749698,45.4840233,-75.5276342,,7870,Décarie Drive,house,"7870 Décarie drive, Ottawa, ON","7870 Décarie drive, Ottawa, ON"
84416,way,472253411,45.3313497,-75.7792262,,4,Ashwick Court,house,"4 Ashwick court, Ottawa, ON","4 Ashwick court, Ottawa, ON"
275077,way,617530939,45.4761937,-75.4974336,,1448,Hodge Crescent,house,"1448 Hodge crescent, Ottawa, ON","1448 Hodge crescent, Ottawa, ON"
129926,way,474720004,45.3536348,-75.773156,,2408,Iris Street,house,"2408 Iris street, Ottawa, ON","2408 Iris street, Ottawa, ON"
157039,way,482278398,45.4052935,-75.7068938,,44,Louisa Street,house,"44 Louisa street, Ottawa, ON","44 Louisa street, Ottawa, ON"
225527,way,569170800,45.3728298,-75.6533791,,1438 B,Heatherington Road,house,"1438 B Heatherington road, Ottawa, ON","1438 B Heatherington road, Ottawa, ON"
19367,way,459921951,45.4572183,-75.6205368,,11,Bracken Court,house,"11 Bracken court, Ottawa, ON","11 Bracken court, Ottawa, ON"
170476,way,483291545,45.4525443,-75.6046487,,2008,Gatineau View Crescent,house,"2008 Gatineau view crescent, Ottawa, ON","2008 Gatineau view crescent, Ottawa, ON"
186344,way,484712270,45.4839081,-75.5126255,,182,Nightingale Street,house,"182 Nightingale street, Ottawa, ON","182 Nightingale street, Ottawa, ON"
271117,way,615374254,45.4409171,-75.6392356,,660,Wilson Street,house,"660 Wilson street, Ottawa, ON","660 Wilson street, Ottawa, ON"
242399,way,582541653,45.3764073,-75.7290399,,1295,Trenton Avenue,house,"1295 Trenton avenue, Ottawa, ON","1295 Trenton avenue, Ottawa, ON"
7826,way,305804602,45.4449845,-75.6285598,22,660,Hochelaga Street,house,"22-660 Hochelaga street, Ottawa, ON","660 Hochelaga street, Ottawa, ON"
242446,way,582541714,45.3738911,-75.7342645,,1419,Rosenthal Avenue,house,"1419 Rosenthal avenue, Ottawa, ON","1419 Rosenthal avenue, Ottawa, ON"
221190,way,566792968,45.4309064,-75.5605603,,2136,Orient Park Drive,house,"2136 Orient park drive, Ottawa, ON","2136 Orient park drive, Ottawa, ON"
6370,way,261716639,45.39161,-75.7321277,,167,Ruskin Street,house,"167 Ruskin street, Ottawa, ON","167 Ruskin street, Ottawa, ON"
196050,way,546731812,45.3325004,-75.7773178,,97,Craig Henry Drive,house,"97 Craig henry drive, Ottawa, ON","97 Craig henry drive, Ottawa, ON"
19442,way,459930303,45.450124,-75.6074825,,47,Rothwell Drive,house,"47 Rothwell drive, Ottawa, ON","47 Rothwell drive, Ottawa, ON"
243595,way,583085129,45.4406636,-75.6015014,,1789,Cloverlawn Crescent,house,"1789 Cloverlawn crescent, Ottawa, ON","1789 Cloverlawn crescent, Ottawa, ON"
8950,way,318389284,45.3629681,-75.7950142,,346,Britannia Road,house,"346 Britannia road, Ottawa, ON","346 Britannia road, Ottawa, ON"
193516,way,546222325,45.3477892,-75.6451106,,2769,Hambledon Court,house,"2769 Hambledon court, Ottawa, ON","2769 Hambledon court, Ottawa, ON"
281969,way,620524045,45.3220725,-75.5959053,,408,Cache Bay Crescent,house,"408 Cache bay crescent, Ottawa, ON","408 Cache bay crescent, Ottawa, ON"
181398,way,484384682,45.4745782,-75.5369777,,1064,St. Jovite Ridge,house,"1064 St. jovite ridge, Ottawa, ON","1064 St. jovite ridge, Ottawa, ON"
19349,way,459920237,45.4559356,-75.6196455,,31,Burrows Road,house,"31 Burrows road, Ottawa, ON","31 Burrows road, Ottawa, ON"
220459,way,565474544,45.3988783,-75.7513109,,196,Lanark Avenue,house,"196 Lanark avenue, Ottawa, ON","196 Lanark avenue, Ottawa, ON"
223822,way,568517772,45.4826479,-75.5262392,,7891,Jeanne-d'Arc Boulevard North,house,"7891 Jeanne-d'arc boulevard north, Ottawa, ON","7891 Jeanne-d'arc boulevard north, Ottawa, ON"
129626,way,474717608,45.3555552,-75.785779,,999,Mossdale Street,house,"999 Mossdale street, Ottawa, ON","999 Mossdale street, Ottawa, ON"
10693,way,364799294,45.4077012,-75.648436,,1536,Mimosa Avenue,house,"1536 Mimosa avenue, Ottawa, ON","1536 Mimosa avenue, Ottawa, ON"
6499,way,262308752,45.3952877,-75.7272772,,352,Hamilton Avenue South,house,"352 Hamilton avenue south, Ottawa, ON","352 Hamilton avenue south, Ottawa, ON"
249486,way,585293594,45.4337275,-75.6361033,,910,Cummings Avenue,house,"910 Cummings avenue, Ottawa, ON","910 Cummings avenue, Ottawa, ON"
53647,way,471307028,45.2781235,-75.7335103,,57,Alameda Way,house,"57 Alameda way, Ottawa, ON","57 Alameda way, Ottawa, ON"
225516,way,569165023,45.3777278,-75.6525329,,2832 S,Cedarwood Drive,house,"2832 S Cedarwood drive, Ottawa, ON","2832 S Cedarwood drive, Ottawa, ON"
279967,way,618716559,45.4354899,-75.6642989,,271,Émond Street,house,"271 Émond street, Ottawa, ON","271 Émond street, Ottawa, ON"
155211,way,481678092,45.4112062,-75.681558,,245 A,Echo Drive,house,"245 A Echo drive, Ottawa, ON","245 A Echo drive, Ottawa, ON"
204911,way,548047163,45.3920229,-75.748615,,437 B,Tweedsmuir Avenue,house,"437 B Tweedsmuir avenue, Ottawa, ON","437 B Tweedsmuir avenue, Ottawa, ON"
235349,way,578579954,45.4370074,-75.6372891,,791,Cummings Avenue,house,"791 Cummings avenue, Ottawa, ON","791 Cummings avenue, Ottawa, ON"
8741,way,318126886,45.3712653,-75.8009508,,73,Bradford Street,house,"73 Bradford street, Ottawa, ON","73 Bradford street, Ottawa, ON"
242321,way,582422761,45.3813562,-75.6711996,,1511,Gilles Street,house,"1511 Gilles street, Ottawa, ON","1511 Gilles street, Ottawa, ON"
288330,way,634491974,45.4664915,-75.5199424,,18,Aquamarine Private,house,"18 Aquamarine private, Ottawa, ON","18 Aquamarine private, Ottawa, ON"
241106,way,581766136,45.4732347,-75.5326933,,1749,Stoneboat Crescent,house,"1749 Stoneboat crescent, Ottawa, ON","1749 Stoneboat crescent, Ottawa, ON"
114152,way,473209435,45.3504422,-75.7202474,,60,Saginaw Crescent,house,"60 Saginaw crescent, Ottawa, ON","60 Saginaw crescent, Ottawa, ON"
263381,way,613168187,45.2792547,-75.7286345,,396,Beatrice Drive,house,"396 Beatrice drive, Ottawa, ON","396 Beatrice drive, Ottawa, ON"
232153,way,575720526,45.4009249,-75.7145613,,196,Loretta Avenue South,house,"196 Loretta avenue south, Ottawa, ON","196 Loretta avenue south, Ottawa, ON"
61035,way,471617145,45.2614187,-75.9231886,,3,Wintergreen Drive,house,"3 Wintergreen drive, Ottawa, ON","3 Wintergreen drive, Ottawa, ON"
231708,way,575254695,45.2471428,-75.7388517,,592,Egret Way,house,"592 Egret way, Ottawa, ON","592 Egret way, Ottawa, ON"
189585,way,507861102,45.3720636,-75.7351129,,105,Fordham Private,house,"105 Fordham private, Ottawa, ON","105 Fordham private, Ottawa, ON"
53530,way,471306896,45.2827124,-75.7377609,,69,Upminster Way,house,"69 Upminster way, Ottawa, ON","69 Upminster way, Ottawa, ON"
189502,way,507675404,45.2939525,-75.7381023,,33,Montana Way,house,"33 Montana way, Ottawa, ON","33 Montana way, Ottawa, ON"
199443,way,547162649,45.3662612,-75.7384429,,6,Coleridge Street,house,"6 Coleridge street, Ottawa, ON","6 Coleridge street, Ottawa, ON"
9438,way,319653197,45.4103462,-75.6458103,,542,Coronation Avenue,house,"542 Coronation avenue, Ottawa, ON","542 Coronation avenue, Ottawa, ON"
202510,way,547553295,45.3578753,-75.7668436,,1156,Woodroffe Avenue,house,"1156 Woodroffe avenue, Ottawa, ON","1156 Woodroffe avenue, Ottawa, ON"
217654,way,563080608,45.3046188,-75.9377534,,458,Brettonwood Ridge,house,"458 Brettonwood ridge, Ottawa, ON","458 Brettonwood ridge, Ottawa, ON"
41976,way,470747706,45.4487529,-75.489143,,344,Farincourt Crescent,house,"344 Farincourt crescent, Ottawa, ON","344 Farincourt crescent, Ottawa, ON"
242151,way,582422572,45.3738402,-75.6710952,,2528,Kaladar Avenue,house,"2528 Kaladar avenue, Ottawa, ON","2528 Kaladar avenue, Ottawa, ON"
233812,way,577875816,45.3648899,-75.6375952,,18,Somero Private,house,"18 Somero private, Ottawa, ON","18 Somero private, Ottawa, ON"
235173,way,578287149,45.3482252,-75.7162321,,6 E,Tropicana Private,house,"6 E Tropicana private, Ottawa, ON","6 E Tropicana private, Ottawa, ON"
294190,way,689260606,45.4976779,-75.4682675,,340,Mishawashkode Street,house,"340 Mishawashkode street, Ottawa, ON","340 Mishawashkode street, Ottawa, ON"
41285,way,470679082,45.4573055,-75.4583212,,1029,Clubmoss Avenue,house,"1029 Clubmoss avenue, Ottawa, ON","1029 Clubmoss avenue, Ottawa, ON"
271478,way,615419487,45.3903972,-75.6902621,,174,Hopewell Avenue,house,"174 Hopewell avenue, Ottawa, ON","174 Hopewell avenue, Ottawa, ON"
229579,way,573763826,45.4466165,-75.6453483,,422,Carpenter Way,house,"422 Carpenter way, Ottawa, ON","422 Carpenter way, Ottawa, ON"
15093,way,431100728,45.4813178,-75.5036468,,1315,Turner Crescent,house,"1315 Turner crescent, Ottawa, ON","1315 Turner crescent, Ottawa, ON"
22019,way,469765231,45.1389882,-75.6142182,,3294,Nixon Drive,house,"3294 Nixon drive, Ottawa, ON","3294 Nixon drive, Ottawa, ON"
139747,way,478969470,45.3913006,-75.7582246,,383,Berkley Avenue,house,"383 Berkley avenue, Ottawa, ON","383 Berkley avenue, Ottawa, ON"
235509,way,578580229,45.435955,-75.6382288,,810,Borthwick Avenue,house,"810 Borthwick avenue, Ottawa, ON","810 Borthwick avenue, Ottawa, ON"
111629,way,473169674,45.3303695,-75.8926997,,143,Penfield Drive,house,"143 Penfield drive, Ottawa, ON","143 Penfield drive, Ottawa, ON"
202032,way,547487303,45.3294967,-75.7785076,,57,Bainbridge Avenue,house,"57 Bainbridge avenue, Ottawa, ON","57 Bainbridge avenue, Ottawa, ON"
243800,way,583258119,45.3523371,-75.6404124,,2872,Mésanges Drive,house,"2872 Mésanges drive, Ottawa, ON","2872 Mésanges drive, Ottawa, ON"
206562,way,549603586,45.4034743,-75.6994444,,118,Renfrew Avenue,house,"118 Renfrew avenue, Ottawa, ON","118 Renfrew avenue, Ottawa, ON"
221278,way,566793105,45.4336266,-75.5543236,,2394,Orient Park Drive,house,"2394 Orient park drive, Ottawa, ON","2394 Orient park drive, Ottawa, ON"
141760,way,479197021,45.2737569,-75.7614788,,28,Aldgate Crescent,house,"28 Aldgate crescent, Ottawa, ON","28 Aldgate crescent, Ottawa, ON"
22151,way,469765458,45.144892,-75.6092283,,5521,Osgoode Main Street,house,"5521 Osgoode main street, Ottawa, ON","5521 Osgoode main street, Ottawa, ON"
99590,way,472428995,45.4761689,-75.5003444,,1431,Deavy Way,house,"1431 Deavy way, Ottawa, ON","1431 Deavy way, Ottawa, ON"
247462,way,584206677,45.44469,-75.6007361,,905 G,Elmsmere Road,house,"905 G Elmsmere road, Ottawa, ON","905 G Elmsmere road, Ottawa, ON"
191645,way,538584503,45.343018,-75.6630306,,3636,Downpatrick Road,house,"3636 Downpatrick road, Ottawa, ON","3636 Downpatrick road, Ottawa, ON"
114377,way,473209941,45.3494891,-75.718707,,10,Juniper Court,house,"10 Juniper court, Ottawa, ON","10 Juniper court, Ottawa, ON"
155751,way,481791660,45.4092993,-75.714494,,85,Preston Street,house,"85 Preston street, Ottawa, ON","85 Preston street, Ottawa, ON"
5032,way,246522227,45.1913047,-76.0240224,,1540,Dwyer Hill Road,house,"1540 Dwyer hill road, Ottawa, ON","1540 Dwyer hill road, Ottawa, ON"
134060,way,475114982,45.3856435,-75.7466691,,276,Duncairn Avenue,house,"276 Duncairn avenue, Ottawa, ON","276 Duncairn avenue, Ottawa, ON"
18454,way,450841635,45.4189955,-75.431072,,1010,Forest Lea Drive,house,"1010 Forest lea drive, Ottawa, ON","1010 Forest lea drive, Ottawa, ON"
164517,way,483027010,45.3705332,-75.6825477,,52,Confederation Private,house,"52 Confederation private, Ottawa, ON","52 Confederation private, Ottawa, ON"
131876,way,474881503,45.3659746,-75.7402297,,39,Coleridge Street,house,"39 Coleridge street, Ottawa, ON","39 Coleridge street, Ottawa, ON"
46313,way,471116958,45.4575583,-75.4725385,,630,Aquaview Drive,house,"630 Aquaview drive, Ottawa, ON","630 Aquaview drive, Ottawa, ON"
46204,way,471116830,45.4540329,-75.4728267,,2237,Esprit Drive,house,"2237 Esprit drive, Ottawa, ON","2237 Esprit drive, Ottawa, ON"
205990,way,549075507,45.3920885,-75.7245383,,5,Inglewood Place,house,"5 Inglewood place, Ottawa, ON","5 Inglewood place, Ottawa, ON"
162828,way,482916595,45.3644479,-75.6858935,,10,Bayside Private,house,"10 Bayside private, Ottawa, ON","10 Bayside private, Ottawa, ON"
120613,way,474026887,45.3649991,-75.7262765,,117,Encore Private,house,"117 Encore private, Ottawa, ON","117 Encore private, Ottawa, ON"
193562,way,546222390,45.3473668,-75.6480038,,2507,Hunter's Point Crescent,house,"2507 Hunter's point crescent, Ottawa, ON","2507 Hunter's point crescent, Ottawa, ON"
63817,way,471676878,45.3313882,-75.7462109,,32,Foxmeadow Lane,house,"32 Foxmeadow lane, Ottawa, ON","32 Foxmeadow lane, Ottawa, ON"
59589,way,471498157,45.270692,-75.8534693,,278,Catamount Court,house,"278 Catamount court, Ottawa, ON","278 Catamount court, Ottawa, ON"
195562,way,546684970,45.3162247,-75.8391762,,49,Westcliffe Road,house,"49 Westcliffe road, Ottawa, ON","49 Westcliffe road, Ottawa, ON"
129583,way,474717563,45.3566564,-75.7935212,,887,Pinecrest Road,house,"887 Pinecrest road, Ottawa, ON","887 Pinecrest road, Ottawa, ON"
207819,way,554579782,45.4261712,-75.6127962,,1326,Marigold Crescent,house,"1326 Marigold crescent, Ottawa, ON","1326 Marigold crescent, Ottawa, ON"
129170,way,474668082,45.4258081,-75.6760369,,300,Osgoode Street,house,"300 Osgoode street, Ottawa, ON","300 Osgoode street, Ottawa, ON"
199013,way,547162210,45.3528353,-75.7274659,,24,Southview Crescent,house,"24 Southview crescent, Ottawa, ON","24 Southview crescent, Ottawa, ON"
164488,way,483026967,45.3715403,-75.6823178,,25,Confederation Private,house,"25 Confederation private, Ottawa, ON","25 Confederation private, Ottawa, ON"
249804,way,585524892,45.4240078,-75.6510961,,339 B,Presland Road,house,"339 B Presland road, Ottawa, ON","339 B Presland road, Ottawa, ON"
170556,way,483291625,45.4529595,-75.6045202,,2000,Gatineau View Crescent,house,"2000 Gatineau view crescent, Ottawa, ON","2000 Gatineau view crescent, Ottawa, ON"
139157,way,478962872,45.3983167,-75.7226447,,22,Reid Avenue,house,"22 Reid avenue, Ottawa, ON","22 Reid avenue, Ottawa, ON"
15103,way,431100738,45.4824415,-75.5025578,,1335,Turner Crescent,house,"1335 Turner crescent, Ottawa, ON","1335 Turner crescent, Ottawa, ON"
242898,way,582941559,45.3734558,-75.6192867,,53,Clifford Private,house,"53 Clifford private, Ottawa, ON","53 Clifford private, Ottawa, ON"
15121,way,431100756,45.4803973,-75.5001603,,1371,Turner Crescent,house,"1371 Turner crescent, Ottawa, ON","1371 Turner crescent, Ottawa, ON"
13903,way,389994886,45.3992438,-75.757222,,318,Ferndale Avenue,house,"318 Ferndale avenue, Ottawa, ON","318 Ferndale avenue, Ottawa, ON"
41289,way,470679089,45.4578182,-75.458566,,1019,Clubmoss Avenue,house,"1019 Clubmoss avenue, Ottawa, ON","1019 Clubmoss avenue, Ottawa, ON"
116825,way,473332344,45.3494332,-75.7969044,,86,Splinter Crescent,house,"86 Splinter crescent, Ottawa, ON","86 Splinter crescent, Ottawa, ON"
6494,way,262308743,45.3948325,-75.727519,,359,Hinton Avenue South,house,"359 Hinton avenue south, Ottawa, ON","359 Hinton avenue south, Ottawa, ON"
288624,way,637683202,45.3587847,-76.0506568,,4058,Carp Road,house,"4058 Carp road, Ottawa, ON","4058 Carp road, Ottawa, ON"
129018,way,474664043,45.2443532,-75.9093384,,168,Hartsmere Drive,house,"168 Hartsmere drive, Ottawa, ON","168 Hartsmere drive, Ottawa, ON"
8135,way,307631707,45.4699313,-75.4938646,,423,Phoenix Crescent,house,"423 Phoenix crescent, Ottawa, ON","423 Phoenix crescent, Ottawa, ON"
196023,way,546731784,45.3310705,-75.7749652,,39,Bentworth Crescent,house,"39 Bentworth crescent, Ottawa, ON","39 Bentworth crescent, Ottawa, ON"
5222,way,248757874,45.3901541,-75.732654,,646,Island Park Drive,house,"646 Island park drive, Ottawa, ON","646 Island park drive, Ottawa, ON"
14523,way,399565411,45.3786725,-75.7370085,,1403,Larose Avenue,house,"1403 Larose avenue, Ottawa, ON","1403 Larose avenue, Ottawa, ON"
205956,way,549075472,45.3962949,-75.7301912,,218,Holland Avenue,house,"218 Holland avenue, Ottawa, ON","218 Holland avenue, Ottawa, ON"
173427,way,483660245,45.3644709,-75.64419,,149,Alliance Private,house,"149 Alliance private, Ottawa, ON","149 Alliance private, Ottawa, ON"
242278,way,582422699,45.3748954,-75.6722922,,2496,Falcon Avenue,house,"2496 Falcon avenue, Ottawa, ON","2496 Falcon avenue, Ottawa, ON"
203695,way,547783438,45.4683416,-75.5437505,,1724,Harvest Crescent,house,"1724 Harvest crescent, Ottawa, ON","1724 Harvest crescent, Ottawa, ON"
220632,way,565632055,45.2870522,-75.73114,,115,Beatrice Drive,house,"115 Beatrice drive, Ottawa, ON","115 Beatrice drive, Ottawa, ON"
129488,way,474717455,45.35487,-75.7943464,,926,Watson Street,house,"926 Watson street, Ottawa, ON","926 Watson street, Ottawa, ON"
14708,way,414240841,45.3950056,-75.7503947,,349,Tweedsmuir Avenue,house,"349 Tweedsmuir avenue, Ottawa, ON","349 Tweedsmuir avenue, Ottawa, ON"
171009,way,483307345,45.4560734,-75.5934327,,2156,Bickerton Avenue,house,"2156 Bickerton avenue, Ottawa, ON","2156 Bickerton avenue, Ottawa, ON"
129643,way,474717625,45.3563341,-75.7929669,,900,Pinewood Crescent,house,"900 Pinewood crescent, Ottawa, ON","900 Pinewood crescent, Ottawa, ON"
20854,way,469687896,45.3528433,-76.0385029,,315,Seagram Heights,house,"315 Seagram heights, Ottawa, ON","315 Seagram heights, Ottawa, ON"
239404,way,581041668,45.4632376,-75.595724,,2187,Fillmore Crescent,house,"2187 Fillmore crescent, Ottawa, ON","2187 Fillmore crescent, Ottawa, ON"
172160,way,483449690,45.4610421,-75.5948225,,2231,Fillmore Crescent,house,"2231 Fillmore crescent, Ottawa, ON","2231 Fillmore crescent, Ottawa, ON"
10185,way,356133420,45.3581101,-75.7728662,,2029,Kingsley Road,house,"2029 Kingsley road, Ottawa, ON","2029 Kingsley road, Ottawa, ON"
10786,way,369025069,45.3798994,-75.7308904,,1275,Shillington Avenue,house,"1275 Shillington avenue, Ottawa, ON","1275 Shillington avenue, Ottawa, ON"
41297,way,470679102,45.4571572,-75.4588847,,1032,Clubmoss Avenue,house,"1032 Clubmoss avenue, Ottawa, ON","1032 Clubmoss avenue, Ottawa, ON"
249336,way,585239338,45.4304866,-75.637111,,4435,Elaine Drive,house,"4435 Elaine drive, Ottawa, ON","4435 Elaine drive, Ottawa, ON"
193574,way,546225902,45.3469075,-75.6462471,,2712,Farriers Lane,house,"2712 Farriers lane, Ottawa, ON","2712 Farriers lane, Ottawa, ON"
6470,way,261979491,45.3927756,-75.7286183,,385,Huron Avenue South,house,"385 Huron avenue south, Ottawa, ON","385 Huron avenue south, Ottawa, ON"
205055,way,548047308,45.3867271,-75.7469635,,263,Avondale Avenue,house,"263 Avondale avenue, Ottawa, ON","263 Avondale avenue, Ottawa, ON"
204361,way,547801418,45.3622736,-75.7096842,,1544,Ortona Avenue,house,"1544 Ortona avenue, Ottawa, ON","1544 Ortona avenue, Ottawa, ON"
79881,way,472231095,45.3252565,-75.7008777,,8,Waterford Way,house,"8 Waterford way, Ottawa, ON","8 Waterford way, Ottawa, ON"
6485,way,262265776,45.3339397,-75.6733664,,128,McGill Private,house,"128 Mcgill private, Ottawa, ON","128 Mcgill private, Ottawa, ON"
8402,way,309597063,45.4727038,-75.4977149,,374,Amiens Street,house,"374 Amiens street, Ottawa, ON","374 Amiens street, Ottawa, ON"
